$MXPGN,01EFFF,7806,FFFFFF0384120163*63
$MXPGN,01EFFF,7806,000000003F3DA888*10
$GPGGA,164534.078,3406.36771,N,07752.48059,W,2,10,1.24,-44.82,M,-36.43,M,,*4F
$GPRMC,164534.078,A,3406.36771,N,07752.48059,W,30.22,16.07,140723,,,D*75
$GPVTG,16.07,T,,M,30.22,N,55.96,K,D*04
$MXPGN,01EFFF,7806,FFFFFFFFFFFF7FA6*6D
$GLZDA,164534.328,14,07,2023,,*43
$MXPGN,01EFFF,7806,FFFFFF001108CEE2*12
$MXPGN,01EFFF,7806,000000003F3DAD08*64
$GPGGA,164535.078,3406.37588,N,07752.47784,W,2,10,1.24,-44.82,M,-36.43,M,,*43
$GPGLL,3406.37588,N,07752.47784,W,164535.078,A,D*4E
$GPVTG,15.60,T,,M,30.26,N,56.04,K,D*0A
$MXPGN,01EFFF,7806,FFFFFFFFFFFF7F26*1E
$MXPGN,01EFFF,7806,FFFFFFFFFF7FFF44*1A
$MXPGN,01EFFF,7806,FFFF02B62A4E9064*14
$MXPGN,01EFFF,7806,FFFFFF001108CE82*6F
$MXPGN,01EFFF,7806,FFFFFF03851201A3*15
$MXPGN,01EFFF,7806,000000003F3DA7C8*64
$GPGGA,164536.070,3406.38395,N,07752.47519,W,2,10,1.24,-44.89,M,-36.43,M,,*40
$GPGLL,3406.38395,N,07752.47519,W,164536.070,A,D*46
$GPVTG,15.13,T,,M,30.12,N,55.78,K,D*01
$MXPGN,01EFFF,7806,FFFFFFFFFFFF7FE6*69
$MXPGN,01EFFF,7806,FFFFFFFFFF7FFF04*1E
$MXPGN,01EFFF,7806,FFFFFF001108CE22*65
$MXPGN,01EFFF,7806,000000003F3DA448*10
$GPGGA,164537.070,3406.39206,N,07752.47257,W,2,10,1.24,-44.76,M,-36.43,M,,*46
$GPGLL,3406.39206,N,07752.47257,W,164537.070,A,D*40
$GPVTG,14.92,T,,M,30.16,N,55.85,K,D*0F
$MXPGN,01EFFF,7806,FFFFFFFFFFFF7F66*1A
$MXPGN,01EFFF,7806,FFFFFFFFFF7FFF84*16
$MXPGN,01EFFF,7806,FFFFFF001108CEA2*16
$MXPGN,01EFFF,7806,FFFF02B72A4E90C4*60
$MXPGN,01EFFF,7806,FFFFFF03861201E3*12
$MXPGN,01EFFF,7806,000000003F3DAB08*62
$GPGGA,164538.070,3406.40021,N,07752.47001,W,2,10,1.24,-44.69,M,-36.43,M,,*4F
$GPGLL,3406.40021,N,07752.47001,W,164538.070,A,D*47
$GPVTG,14.70,T,,M,30.11,N,55.76,K,D*08
$MXPGN,01EFFF,7806,FFFFFFFFFFFF7F26*1E
$MXPGN,01EFFF,7806,FFFFFFFFFF7FFF44*1A
$MXPGN,01EFFF,7806,FFFFFF001108CE62*61
$MXPGN,01EFFF,7806,000000003F3DA688*1E
$GPGGA,164539.070,3406.40831,N,07752.46746,W,2,10,1.24,-44.76,M,-36.43,M,,*4C
$GPGLL,3406.40831,N,07752.46746,W,164539.070,A,D*4A
$GPVTG,14.43,T,,M,29.93,N,55.43,K,D*0C
$MXPGN,01EFFF,7806,FFFFFFFFFFFF7FA6*6D
$MXPGN,01EFFF,7806,FFFFFFFFFF7FFFC4*6D
$MXPGN,01EFFF,7806,FFFFFF001108CEE2*12
$MXPGN,01EFFF,7806,FFFFFF0387120103*66
$MXPGN,01EFFF,7806,000000003F3DAC28*61
$GPGGA,164540.070,3406.41640,N,07752.46488,W,2,10,1.24,-44.82,M,-36.43,M,,*41
$GPGLL,3406.41640,N,07752.46488,W,164540.070,A,D*4C
$GPVTG,14.20,T,,M,29.83,N,55.24,K,D*09
$MXPGN,01EFFF,7806,FFFFFFFFFFFF7F46*18
$MXPGN,01EFFF,7806,FFFFFFFFFF7FFF64*18
$MXPGN,01EFFF,7806,FFFF02B82A4E9084*14
$MXPGN,01EFFF,7806,FFFFFF001108CEA2*16
$MXPGN,01EFFF,7806,000000003F3DA9C8*6A
$GPGGA,164541.070,3406.42445,N,07752.46221,W,2,10,1.24,-44.56,M,-36.43,M,,*48
$GPGLL,3406.42445,N,07752.46221,W,164541.070,A,D*4C
$GPVTG,15.01,T,,M,29.83,N,55.24,K,D*0B
$MXPGN,01EFFF,7806,FFFFFFFFFFFF00E2*1C
$MXPGN,01EFFF,7806,FFFFFFFFFFFF7F06*1C
$GLZDA,164541.320,14,07,2023,,*49
$MXPGN,01EFFF,7806,FFFFFF001108CE42*63
$MXPGN,01EFFF,7806,FFFFFF0388120163*6F
$MXPGN,01EFFF,7806,000000003F3DB288*19
$GPGGA,164542.070,3406.43244,N,07752.45951,W,2,10,1.24,-44.36,M,-36.43,M,,*44
$GPRMC,164542.070,A,3406.43244,N,07752.45951,W,29.68,15.49,140723,,,D*7E
$GPVTG,15.49,T,,M,29.68,N,54.96,K,D*0A
$MXPGN,01EFFF,7806,FFFFFFFFFFFF7FA6*6D
$GLZDA,164542.320,14,07,2023,,*4A
$MXPGN,00EA00,6306,00EE00*67
$MXPGN,01EFFF,7806,FFFFFF001108CEE2*12
$MXPGN,00EA01,6306,00EE00*66
$MXPGN,00EA03,6306,00EE00*64
$MXPGN,01EFFF,7806,FFFF02B92A4E9004*1D
$MXPGN,01EFFF,7806,000000003F3DB228*13
$GPGGA,164543.070,3406.44049,N,07752.45687,W,2,10,1.24,-44.36,M,-36.43,M,,*49
$GPRMC,164543.070,A,3406.44049,N,07752.45687,W,29.77,15.21,140723,,,D*73
$GPVTG,15.21,T,,M,29.77,N,55.13,K,D*06
$MXPGN,01EFFF,7806,FFFFFFFFFFFF7F46*18
$MXPGN,00EA02,6306,00EE00*65
$GLZDA,164543.320,14,07,2023,,*4B
$MXPGN,00EA04,6306,00EE00*63
$MXPGN,01EFFF,7806,FFFFFF001108CE82*6F
$MXPGN,00EA05,6306,00EE00*62
$MXPGN,01EFFF,7806,FFFFFF03891201A3*19
$MXPGN,01EFFF,7806,000000003F3DABC8*11
$GPGGA,164544.070,3406.44849,N,07752.45420,W,2,10,1.24,-44.36,M,-36.43,M,,*49
$GPRMC,164544.070,A,3406.44849,N,07752.45420,W,29.68,15.33,140723,,,D*7E
$GPVTG,15.33,T,,M,29.68,N,54.96,K,D*07
$MXPGN,01EFFF,7806,FFFFFFFFFFFF7FE6*69
$GLZDA,164544.320,14,07,2023,,*4C
$MXPGN,01EFFF,7806,FFFFFF001108CE22*65
$MXPGN,01EFFF,7806,000000003F3DA948*1D
$GPGGA,164545.070,3406.45648,N,07752.45155,W,2,10,1.24,-44.36,M,-36.43,M,,*41
$GPGLL,3406.45648,N,07752.45155,W,164545.070,A,D*43
$GPVTG,15.06,T,,M,29.56,N,54.74,K,D*00
$MXPGN,01EFFF,7806,FFFFFFFFFFFF7F66*1A
$MXPGN,01EFFF,7806,FFFFFFFFFF7FFF84*16
$MXPGN,01EFFF,7806,FFFF02BA2A4E90A4*14
$MXPGN,01EFFF,7806,FFFFFF001108CEC2*14
$MXPGN,01EFFF,7806,FFFFFF038A1201E3*65
$MXPGN,01EFFF,7806,000000003F3DB208*11
$GPGGA,164546.070,3406.46453,N,07752.44895,W,2,10,1.24,-44.49,M,-36.43,M,,*45
$GPGLL,3406.46453,N,07752.44895,W,164546.070,A,D*4F
$GPVTG,14.58,T,,M,29.83,N,55.24,K,D*06
$MXPGN,01EFFF,7806,FFFFFFFFFFFF7F26*1E
$MXPGN,01EFFF,7806,FFFFFFFFFF7FFF44*1A
$MXPGN,01EFFF,7806,FFFFFF001108CE62*61
$MXPGN,01EFFF,7806,000000003F3DAE88*6D
$GPGGA,164547.070,3406.47269,N,07752.44637,W,2,10,1.24,-44.43,M,-36.43,M,,*46
$GPGLL,3406.47269,N,07752.44637,W,164547.070,A,D*46
$GPVTG,14.95,T,,M,30.18,N,55.89,K,D*0A
$MXPGN,01EFFF,7806,FFFFFFFFFFFF7FA6*6D
$MXPGN,01EFFF,7806,FFFFFFFFFF7FFFC4*6D
$MXPGN,01EFFF,7806,FFFFFF001108CEE2*12
$MXPGN,01EFFF,7806,FFFF02BB2A4E9004*66
$MXPGN,01EFFF,7806,FFFFFF038B120123*11
$MXPGN,01EFFF,7806,000000003F3DAB48*66
$GPGGA,164548.070,3406.48079,N,07752.44378,W,2,10,1.24,-44.36,M,-36.43,M,,*49
$GPGLL,3406.48079,N,07752.44378,W,164548.070,A,D*4B
$GPVTG,14.61,T,,M,30.24,N,56.00,K,D*0C
$MXPGN,01EFFF,7806,FFFFFFFFFFFF7F66*1A
$MXPGN,01EFFF,7806,FFFFFFFFFF7FFF84*16
$MXPGN,01EFFF,7806,000000003F3DB2C8*62
$GPGGA,164549.070,3406.48879,N,07752.44126,W,2,10,1.24,-44.49,M,-36.43,M,,*41
$GPGLL,3406.48879,N,07752.44126,W,164549.070,A,D*4B
$GPVTG,14.68,T,,M,29.95,N,55.46,K,D*06
$MXPGN,01EFFF,7806,FFFFFFFFFFFF7FE6*69
$MXPGN,01EFFF,7806,FFFFFFFFFF7FFF04*1E
$MXPGN,01EFFF,7806,FFFFFF001108CE22*65
$MXPGN,01EFFF,7806,FFFFFF038C120143*16
$MXPGN,01EFFF,7806,000000003F3DB668*13
$GPGGA,164550.070,3406.49677,N,07752.43886,W,2,10,1.24,-44.23,M,-36.43,M,,*40
$GPGLL,3406.49677,N,07752.43886,W,164550.070,A,D*46
$GPVTG,14.40,T,,M,29.54,N,54.70,K,D*05
$MXPGN,01EFFF,7806,FFFFFFFFFFFF7F86*14
$MXPGN,01EFFF,7806,FFFFFFFFFF7FFFA4*6F
$MXPGN,01EFFF,7806,FFFF02BC2A4E90C4*14
$MXPGN,01EFFF,7806,FFFFFF001108CEE2*12
$MXPGN,01EFFF,7806,000000003F3DAD08*64
$GPGGA,164551.078,3406.50471,N,07752.43637,W,2,10,1.24,-44.30,M,-36.43,M,,*43
$GPGLL,3406.50471,N,07752.43637,W,164551.078,A,D*47
$GPVTG,14.86,T,,M,29.39,N,54.43,K,D*04
$MXPGN,01EFFF,7806,FFFFFFFFFFFF0022*6B
$MXPGN,01EFFF,7806,FFFFFFFFFFFF7F46*18
$GLZDA,164551.328,14,07,2023,,*40
$MXPGN,01EFFF,7806,FFFFFF001108CE82*6F
$MXPGN,01EFFF,7806,FFFFFF038D1201A3*64
$MXPGN,01EFFF,7806,000000003F3DB5C8*65
$GPGGA,164552.078,3406.51255,N,07752.43388,W,2,10,1.24,-44.17,M,-36.43,M,,*45
$GPRMC,164552.078,A,3406.51255,N,07752.43388,W,29.29,15.83,140723,,,D*7F
$GPVTG,15.83,T,,M,29.29,N,54.24,K,D*00
$MXPGN,01EFFF,7806,FFFFFFFFFFFF7FE6*69
$GLZDA,164552.328,14,07,2023,,*43
$MXPGN,01EFFF,7806,FFFFFF001108CE22*65
$MXPGN,01EFFF,7806,FFFF02BD2A4E9044*64
$MXPGN,01EFFF,7806,000000003F3DB368*16
$GPGGA,164553.078,3406.52039,N,07752.43122,W,2,10,1.24,-43.77,M,-36.43,M,,*4C
$GPRMC,164553.078,A,3406.52039,N,07752.43122,W,29.39,15.95,140723,,,D*71
$GPVTG,15.95,T,,M,29.39,N,54.43,K,D*07
$MXPGN,01EFFF,7806,FFFFFFFFFFFF7F86*14
$GLZDA,164553.328,14,07,2023,,*42
$MXPGN,00EA00,6306,00EE00*67
$MXPGN,01EFFF,7806,FFFFFF001108CEC2*14
$MXPGN,01EFFF,7806,FFFFFF038E1201E3*61
$MXPGN,01EFFF,7806,000000003F3DB608*15
$GPGGA,164554.078,3406.52810,N,07752.42860,W,2,10,1.24,-43.45,M,-36.43,M,,*47
$GPRMC,164554.078,A,3406.52810,N,07752.42860,W,29.31,16.75,140723,,,D*7E
$GPVTG,16.75,T,,M,29.31,N,54.28,K,D*0F
$MXPGN,01EFFF,7806,FFFFFFFFFFFF7F26*1E
$GLZDA,164554.328,14,07,2023,,*45
$MXPGN,00EA02,6306,00EE00*65
$MXPGN,00EA03,6306,00EE00*64
$MXPGN,01EFFF,7806,FFFFFF001108CE62*61
$MXPGN,00EA04,6306,00EE00*63
$MXPGN,00EA01,6306,00EE00*66
$MXPGN,01EFFF,7806,000000003F3DB688*1D
$GPGGA,164555.078,3406.53592,N,07752.42577,W,2,10,1.24,-43.45,M,-36.43,M,,*4B
$GPGLL,3406.53592,N,07752.42577,W,164555.078,A,D*4A
$GPVTG,17.13,T,,M,29.56,N,54.74,K,D*06
$MXPGN,01EFFF,7806,FFFFFFFFFFFF7FA6*6D
$MXPGN,01EFFF,7806,FFFFFFFFFF7FFFC4*6D
$MXPGN,01EFFF,7806,FFFF02BE2A4E90E4*14
$MXPGN,01EFFF,7806,FFFFFF001108CE02*67
$MXPGN,00EA05,6306,00EE00*62
$MXPGN,01EFFF,7806,FFFFFF038F120123*15
$MXPGN,01EFFF,7806,000000003F3DBB48*65
$GPGGA,164556.074,3406.54381,N,07752.42266,W,2,10,1.24,-43.58,M,-36.43,M,,*4C
$GPGLL,3406.54381,N,07752.42266,W,164556.074,A,D*41
$GPVTG,17.66,T,,M,29.76,N,55.11,K,D*04
$MXPGN,01EFFF,7806,FFFFFFFFFFFF7F66*1A
$MXPGN,01EFFF,7806,FFFFFFFFFF7FFF84*16
$MXPGN,01EFFF,7806,FFFFFF001108CEA2*16
$MXPGN,01EFFF,7806,000000003F3DB9C8*69
$GPGGA,164557.078,3406.55171,N,07752.41946,W,2,10,1.24,-43.64,M,-36.43,M,,*48
$GPGLL,3406.55171,N,07752.41946,W,164557.078,A,D*4A
$GPVTG,18.31,T,,M,29.81,N,55.20,K,D*03
$MXPGN,01EFFF,7806,FFFFFFFFFFFF7FE6*69
$MXPGN,01EFFF,7806,FFFFFFFFFF7FFF04*1E
$MXPGN,01EFFF,7806,FFFFFF001108CE22*65
$MXPGN,01EFFF,7806,FFFF02BF2A4E9044*66
$MXPGN,01EFFF,7806,FFFFFF0390120163*66
$MXPGN,01EFFF,7806,000000003F3DBB88*69
$GPGGA,164558.078,3406.55966,N,07752.41616,W,2,10,1.24,-43.45,M,-36.43,M,,*40
$GPGLL,3406.55966,N,07752.41616,W,164558.078,A,D*41
$GPVTG,18.68,T,,M,29.99,N,55.54,K,D*05
$MXPGN,01EFFF,7806,FFFFFFFFFFFF7FA6*6D
$MXPGN,01EFFF,7806,FFFFFFFFFF7FFFC4*6D
$MXPGN,01EFFF,7806,FFFFFF001108CEE2*12
$MXPGN,01EFFF,7806,000000003F3DB808*1B
$GPGGA,164559.078,3406.56749,N,07752.41294,W,2,10,1.24,-43.31,M,-36.43,M,,*4C
$GPGLL,3406.56749,N,07752.41294,W,164559.078,A,D*4E
$GPVTG,18.94,T,,M,29.89,N,55.35,K,D*00
$MXPGN,01EFFF,7806,FFFFFFFFFFFF7F26*1E
$MXPGN,01EFFF,7806,FFFFFFFFFF7FFF44*1A
$MXPGN,01EFFF,7806,FFFFFF001108CE62*61
$MXPGN,01EFFF,7806,FFFFFF0391120183*69
$MXPGN,01EFFF,7806,000000003F3DBBA8*10
$GPGGA,164600.070,3406.57525,N,07752.40965,W,2,10,1.24,-43.25,M,-36.43,M,,*43
$GPGLL,3406.57525,N,07752.40965,W,164600.070,A,D*44
$GPVTG,19.69,T,,M,30.01,N,55.57,K,D*0F
$MXPGN,01EFFF,7806,FFFFFFFFFFFF7FC6*6F
$MXPGN,01EFFF,7806,FFFFFFFFFF7FFFE4*6B
$MXPGN,01EFFF,7806,FFFF02C02A4E9004*15
$MXPGN,01EFFF,7806,FFFFFF001108CE22*65
$MXPGN,01EFFF,7806,000000003F3DB948*1E
$GPGGA,164601.070,3406.58313,N,07752.40621,W,2,10,1.24,-43.31,M,-36.43,M,,*44
$GPGLL,3406.58313,N,07752.40621,W,164601.070,A,D*46
$GPVTG,19.29,T,,M,30.24,N,56.00,K,D*0D
$MXPGN,01EFFF,7806,FFFFFFFFFFFF0062*6F
$MXPGN,01EFFF,7806,FFFFFFFFFFFF7F86*14
$GLZDA,164601.320,14,07,2023,,*4E
$MXPGN,01EFFF,7806,FFFFFF001108CEC2*14
$MXPGN,01EFFF,7806,FFFFFF03921201E3*17
$MXPGN,01EFFF,7806,000000003F3DBE08*66
$GPGGA,164602.070,3406.59108,N,07752.40290,W,2,10,1.24,-43.51,M,-36.43,M,,*46
$GPRMC,164602.070,A,3406.59108,N,07752.40290,W,30.24,18.35,140723,,,D*7C
$GPVTG,18.35,T,,M,30.24,N,56.00,K,D*01
$MXPGN,01EFFF,7806,FFFFFFFFFFFF7F26*1E
$GLZDA,164602.320,14,07,2023,,*4D
$MXPGN,01EFFF,7806,FFFFFF001108CE62*61
$MXPGN,01EFFF,7806,FFFF02C12A4E9084*1C
$MXPGN,01EFFF,7806,000000003F3DBAA8*13
$GPGGA,164603.070,3406.59909,N,07752.39974,W,2,10,1.24,-43.58,M,-36.43,M,,*48
$GPRMC,164603.070,A,3406.59909,N,07752.39974,W,30.28,17.43,140723,,,D*79
$GPVTG,17.43,T,,M,30.28,N,56.07,K,D*04
$MXPGN,01EFFF,7806,FFFFFFFFFFFF7FC6*6F
$GLZDA,164603.320,14,07,2023,,*4C
$MXPGN,01EFFF,7806,FFFFFF001108CE02*67
$MXPGN,00EA00,6306,00EE00*67
$MXPGN,01EFFF,7806,FFFFFF0393120123*61
$MXPGN,01EFFF,7806,000000003F3DC148*17
$GPGGA,164604.070,3406.60718,N,07752.39689,W,2,10,1.24,-43.77,M,-36.43,M,,*4B
$GPRMC,164604.070,A,3406.60718,N,07752.39689,W,30.34,15.84,140723,,,D*73
$GPVTG,15.84,T,,M,30.34,N,56.18,K,D*0E
$MXPGN,01EFFF,7806,FFFFFFFFFFFF7F66*1A
$GLZDA,164604.320,14,07,2023,,*4B
$MXPGN,01EFFF,7806,FFFFFF001108CEA2*16
$MXPGN,00EA01,6306,00EE00*66
$MXPGN,01EFFF,7806,000000003F3DB8C8*68
$GPGGA,164605.070,3406.61536,N,07752.39429,W,2,10,1.24,-43.71,M,-36.43,M,,*4B
$GPGLL,3406.61536,N,07752.39429,W,164605.070,A,D*4D
$GPVTG,14.61,T,,M,30.20,N,55.93,K,D*01
$MXPGN,01EFFF,7806,FFFFFFFFFFFF7FE6*69
$MXPGN,01EFFF,7806,FFFFFFFFFF7FFF04*1E
$MXPGN,01EFFF,7806,FFFF02C22A4E9024*15
$MXPGN,01EFFF,7806,FFFFFF001108CE42*63
$MXPGN,00EA04,6306,00EE00*63
$MXPGN,00EA02,6306,00EE00*65
$MXPGN,01EFFF,7806,FFFFFF0394120163*62
$MXPGN,01EFFF,7806,000000003F3DB988*12
$GPGGA,164606.070,3406.62340,N,07752.39192,W,2,10,1.24,-43.64,M,-36.43,M,,*4D
$GPGLL,3406.62340,N,07752.39192,W,164606.070,A,D*4F
$GPVTG,13.67,T,,M,29.60,N,54.81,K,D*0E
$MXPGN,01EFFF,7806,FFFFFFFFFFFF7FA6*6D
$MXPGN,01EFFF,7806,FFFFFFFFFF7FFFC4*6D
$MXPGN,00EA03,6306,00EE00*64
$MXPGN,01EFFF,7806,FFFFFF001108CEE2*12
$MXPGN,01EFFF,7806,000000003F3DBC08*60
$GPGGA,164607.070,3406.63121,N,07752.38974,W,2,10,1.24,-43.45,M,-36.43,M,,*4A
$GPGLL,3406.63121,N,07752.38974,W,164607.070,A,D*4B
$GPVTG,13.02,T,,M,29.00,N,53.70,K,D*02
$MXPGN,01EFFF,7806,FFFFFFFFFFFF7F26*1E
$MXPGN,01EFFF,7806,FFFFFFFFFF7FFF44*1A
$MXPGN,00EA05,6306,00EE00*62
$MXPGN,01EFFF,7806,FFFFFF001108CE62*61
$MXPGN,01EFFF,7806,FFFF02C32A4E9084*1E
$MXPGN,01EFFF,7806,FFFFFF03951201A3*14
$MXPGN,01EFFF,7806,000000003F3DBBC8*12
$GPGGA,164608.066,3406.63904,N,07752.38766,W,2,10,1.24,-43.25,M,-36.43,M,,*46
$GPGLL,3406.63904,N,07752.38766,W,164608.066,A,D*41
$GPVTG,12.81,T,,M,28.90,N,53.52,K,D*00
$MXPGN,01EFFF,7806,FFFFFFFFFFFF7FE6*69
$MXPGN,01EFFF,7806,FFFFFFFFFF7FFF04*1E
$MXPGN,01EFFF,7806,FFFFFF001108CE22*65
$MXPGN,01EFFF,7806,000000003F3DBA48*66
$GPGGA,164609.066,3406.64684,N,07752.38584,W,2,10,1.24,-43.25,M,-36.43,M,,*49
$GPGLL,3406.64684,N,07752.38584,W,164609.066,A,D*4E
$GPVTG,11.25,T,,M,28.78,N,53.30,K,D*0F
$MXPGN,01EFFF,7806,FFFFFFFFFFFF7F66*1A
$MXPGN,01EFFF,7806,FFFFFFFFFF7FFF84*16
$MXPGN,01EFFF,7806,FFFFFF001108CEA2*16
$MXPGN,01EFFF,7806,FFFFFF03961201C3*15
$MXPGN,01EFFF,7806,000000003F3DBEE8*13
$GPGGA,164610.066,3406.65462,N,07752.38431,W,2,10,1.24,-43.31,M,-36.43,M,,*40
$GPGLL,3406.65462,N,07752.38431,W,164610.066,A,D*42
$GPVTG,10.31,T,,M,28.86,N,53.44,K,D*09
$MXPGN,01EFFF,7806,FFFFFFFFFFFF7F06*1C
$MXPGN,01EFFF,7806,FFFFFFFFFF7FFF24*1C
$MXPGN,01EFFF,7806,FFFF02C42A4E9044*15
$MXPGN,01EFFF,7806,FFFFFF001108CE62*61
$MXPGN,01EFFF,7806,000000003F3DBD88*6F
$GPGGA,164611.066,3406.66262,N,07752.38276,W,2,10,1.24,-43.31,M,-36.43,M,,*41
$GPGLL,3406.66262,N,07752.38276,W,164611.066,A,D*43
$GPVTG,10.12,T,,M,29.35,N,54.35,K,D*00
$MXPGN,01EFFF,7806,FFFFFFFFFFFF00A2*18
$MXPGN,01EFFF,7806,FFFFFFFFFFFF7FC6*6F
$GLZDA,164611.316,14,07,2023,,*4A
$MXPGN,01EFFF,7806,FFFFFF001108CE02*67
$MXPGN,01EFFF,7806,FFFFFF0397120123*65
$MXPGN,01EFFF,7806,000000003F3DBD48*63
$GPGGA,164612.070,3406.67063,N,07752.38101,W,2,10,1.24,-43.38,M,-36.43,M,,*4D
$GPRMC,164612.070,A,3406.67063,N,07752.38101,W,29.29,10.94,140723,,,D*7E
$GPVTG,10.94,T,,M,29.29,N,54.24,K,D*03
$MXPGN,01EFFF,7806,FFFFFFFFFFFF7F66*1A
$GLZDA,164612.320,14,07,2023,,*4C
$MXPGN,01EFFF,7806,FFFFFF001108CEA2*16
$MXPGN,01EFFF,7806,FFFF02C52A4E90C4*63
$MXPGN,01EFFF,7806,000000003F3DC1E8*66
$GPGGA,164613.070,3406.67863,N,07752.37921,W,2,10,1.24,-43.45,M,-36.43,M,,*4B
$GPRMC,164613.070,A,3406.67863,N,07752.37921,W,29.54,11.00,140723,,,D*74
$GPVTG,11.00,T,,M,29.54,N,54.70,K,D*04
$MXPGN,01EFFF,7806,FFFFFFFFFFFF7F06*1C
$GLZDA,164613.320,14,07,2023,,*4D
$MXPGN,01EFFF,7806,FFFFFF001108CE42*63
$MXPGN,01EFFF,7806,FFFFFF0398120163*6E
$MXPGN,01EFFF,7806,000000003F3DC588*1F
$GPGGA,164614.070,3406.68667,N,07752.37728,W,2,10,1.24,-43.45,M,-36.43,M,,*4E
$GPRMC,164614.070,A,3406.68667,N,07752.37728,W,29.77,11.55,140723,,,D*70
$GPVTG,11.55,T,,M,29.77,N,55.13,K,D*01
$MXPGN,01EFFF,7806,FFFFFFFFFFFF7FA6*6D
$MXPGN,00EA00,6306,00EE00*67
$GLZDA,164614.320,14,07,2023,,*4A
$MXPGN,01EFFF,7806,FFFFFF001108CEE2*12
$MXPGN,00EA01,6306,00EE00*66
$MXPGN,01EFFF,7806,000000003F3DC508*17
$GPGGA,164615.066,3406.69475,N,07752.37534,W,2,10,1.24,-43.51,M,-36.43,M,,*42
$GPGLL,3406.69475,N,07752.37534,W,164615.066,A,D*46
$GPVTG,11.53,T,,M,29.99,N,55.54,K,D*04
$MXPGN,01EFFF,7806,FFFFFFFFFFFF7F26*1E
$MXPGN,01EFFF,7806,FFFFFFFFFF7FFF44*1A
$MXPGN,01EFFF,7806,FFFF02C62A4E9064*15
$MXPGN,01EFFF,7806,FFFFFF03991201A3*18
$MXPGN,01EFFF,7806,000000003F3DC9C8*68
$GPGGA,164616.066,3406.70283,N,07752.37343,W,2,10,1.24,-43.71,M,-36.43,M,,*42
$GPGLL,3406.70283,N,07752.37343,W,164616.066,A,D*44
$GPVTG,11.80,T,,M,29.74,N,55.07,K,D*0F
$MXPGN,01EFFF,7806,FFFFFFFFFFFF7FE6*69
$MXPGN,01EFFF,7806,FFFFFFFFFF7FFF04*1E
$MXPGN,01EFFF,7806,FFFFFF001108CE22*65
$MXPGN,01EFFF,7806,000000003F3DC348*15
$MXPGN,00EA04,6306,00EE00*63
$GPGGA,164617.066,3406.71092,N,07752.37148,W,2,10,1.24,-43.84,M,-36.43,M,,*43
$GPRMC,164617.066,A,3406.71092,N,07752.37148,W,29.68,11.84,140723,,,D*72
$GPVTG,11.84,T,,M,29.68,N,54.96,K,D*0F
$MXPGN,01EFFF,7806,FFFFFFFFFFFF7F66*1A
$MXPGN,01EFFF,7806,FFFFFFFFFF7FFF84*16
$MXPGN,00EA02,6306,00EE00*65
$MXPGN,01EFFF,7806,FFFFFF001108CEA2*16
$MXPGN,00EA03,6306,00EE00*64
$MXPGN,01EFFF,7806,FFFF02C72A4E90C4*61
$MXPGN,01EFFF,7806,FFFFFF039A1201E3*64
$MXPGN,01EFFF,7806,000000003F3DC508*17
$GPGGA,164618.070,3406.71898,N,07752.36948,W,2,10,1.24,-44.23,M,-36.43,M,,*4A
$GPGLL,3406.71898,N,07752.36948,W,164618.070,A,D*4C
$GPVTG,11.59,T,,M,29.81,N,55.20,K,D*04
$MXPGN,01EFFF,7806,FFFFFFFFFFFF7F26*1E
$MXPGN,01EFFF,7806,FFFFFFFFFF7FFF44*1A
$MXPGN,00EA05,6306,00EE00*62
$MXPGN,01EFFF,7806,FFFFFF001108CE62*61
$MXPGN,01EFFF,7806,000000003F3DC688*1C
$GPGGA,164619.070,3406.72701,N,07752.36750,W,2,10,1.24,-44.49,M,-36.43,M,,*4C
$GPGLL,3406.72701,N,07752.36750,W,164619.070,A,D*46
$GPVTG,11.95,T,,M,29.97,N,55.50,K,D*04
$MXPGN,01EFFF,7806,FFFFFFFFFFFF7FA6*6D
$MXPGN,01EFFF,7806,FFFFFFFFFF7FFFC4*6D
$MXPGN,01EFFF,7806,FFFFFF001108CEE2*12
$MXPGN,01EFFF,7806,FFFFFF039B120103*12
$MXPGN,01EFFF,7806,000000003F3DC728*17
$GPGGA,164620.070,3406.73513,N,07752.36543,W,2,10,1.24,-44.69,M,-36.43,M,,*44
$GPGLL,3406.73513,N,07752.36543,W,164620.070,A,D*4C
$GPVTG,12.39,T,,M,29.99,N,55.54,K,D*0B
$MXPGN,01EFFF,7806,FFFFFFFFFFFF7F46*18
$MXPGN,01EFFF,7806,FFFFFFFFFF7FFF64*18
$MXPGN,01EFFF,7806,FFFF02C82A4E9084*15
$MXPGN,01EFFF,7806,FFFFFF001108CEA2*16
$MXPGN,01EFFF,7806,000000003F3DCCC8*12
$GPGGA,164621.066,3406.74313,N,07752.36339,W,2,10,1.24,-45.08,M,-36.43,M,,*4E
$GPGLL,3406.74313,N,07752.36339,W,164621.066,A,D*40
$GPVTG,12.06,T,,M,29.76,N,55.11,K,D*07
$MXPGN,01EFFF,7806,FFFFFFFFFFFF00E2*1C
$MXPGN,01EFFF,7806,FFFFFFFFFFFF7F06*1C
$GLZDA,164621.316,14,07,2023,,*49
$MXPGN,01EFFF,7806,FFFFFF001108CE42*63
$MXPGN,01EFFF,7806,FFFFFF039C120163*15
$MXPGN,01EFFF,7806,000000003F3DC488*1E
$GPGGA,164622.070,3406.75122,N,07752.36140,W,2,10,1.24,-45.35,M,-36.43,M,,*49
$GPRMC,164622.070,A,3406.75122,N,07752.36140,W,29.70,12.15,140723,,,D*76
$GPVTG,12.15,T,,M,29.70,N,55.00,K,D*03
$MXPGN,01EFFF,7806,FFFFFFFFFFFF7FA6*6D
$GLZDA,164622.320,14,07,2023,,*4F
$MXPGN,01EFFF,7806,FFFFFF001108CEE2*12
$MXPGN,01EFFF,7806,FFFF02C92A4E9004*1C
$MXPGN,01EFFF,7806,000000003F3DCB28*62
$GPGGA,164623.070,3406.75930,N,07752.35931,W,2,10,1.24,-45.74,M,-36.43,M,,*4B
$GPRMC,164623.070,A,3406.75930,N,07752.35931,W,29.74,12.61,140723,,,D*76
$GPVTG,12.61,T,,M,29.74,N,55.07,K,D*03
$MXPGN,01EFFF,7806,FFFFFFFFFFFF7F46*18
$GLZDA,164623.320,14,07,2023,,*4E
$MXPGN,01EFFF,7806,FFFFFF001108CE82*6F
$MXPGN,01EFFF,7806,FFFFFF039D1201A3*65
$MXPGN,01EFFF,7806,000000003F3DC9C8*68
$GPGGA,164624.066,3406.76746,N,07752.35713,W,2,10,1.24,-45.74,M,-36.43,M,,*49
$GPRMC,164624.066,A,3406.76746,N,07752.35713,W,29.83,12.63,140723,,,D*7E
$GPVTG,12.63,T,,M,29.83,N,55.24,K,D*08
$MXPGN,01EFFF,7806,FFFFFFFFFFFF7FE6*69
$GLZDA,164624.316,14,07,2023,,*4C
$MXPGN,01EFFF,7806,FFFFFF001108CE22*65
$MXPGN,01EFFF,7806,000000003F3DC648*10
$GPGGA,164625.070,3406.77556,N,07752.35490,W,2,10,1.24,-45.94,M,-36.43,M,,*4B
$GPGLL,3406.77556,N,07752.35490,W,164625.070,A,D*40
$GPVTG,13.47,T,,M,29.77,N,55.13,K,D*00
$MXPGN,01EFFF,7806,FFFFFFFFFFFF7F66*1A
$MXPGN,01EFFF,7806,FFFFFFFFFF7FFF84*16
$MXPGN,01EFFF,7806,FFFF02CA2A4E90A4*15
$MXPGN,01EFFF,7806,FFFFFF001108CEC2*14
$MXPGN,01EFFF,7806,FFFFFF039E1201E3*60
$MXPGN,01EFFF,7806,000000003F3DBF08*65
$GPGGA,164626.066,3406.78371,N,07752.35261,W,2,10,1.24,-45.48,M,-36.43,M,,*4A
$GPGLL,3406.78371,N,07752.35261,W,164626.066,A,D*40
$GPVTG,13.52,T,,M,29.77,N,55.13,K,D*04
$MXPGN,01EFFF,7806,FFFFFFFFFFFF7F26*1E
$MXPGN,01EFFF,7806,FFFFFFFFFF7FFF44*1A
$MXPGN,01EFFF,7806,FFFFFF001108CE62*61
$MXPGN,01EFFF,7806,000000003F3DC788*1D
$GPGGA,164627.066,3406.79188,N,07752.35025,W,2,10,1.24,-45.35,M,-36.43,M,,*46
$GPGLL,3406.79188,N,07752.35025,W,164627.066,A,D*46
$GPVTG,14.04,T,,M,29.85,N,55.28,K,D*05
$MXPGN,01EFFF,7806,FFFFFFFFFFFF7FA6*6D
$MXPGN,01EFFF,7806,FFFFFFFFFF7FFFC4*6D
$MXPGN,01EFFF,7806,FFFFFF001108CEE2*12
$MXPGN,01EFFF,7806,FFFF02CB2A4E9004*67
$MXPGN,01EFFF,7806,FFFFFF039F120123*14
$MXPGN,01EFFF,7806,000000003F3DC948*1F
$GPGGA,164628.070,3406.79974,N,07752.34767,W,2,10,1.24,-45.61,M,-36.43,M,,*44
$GPGLL,3406.79974,N,07752.34767,W,164628.070,A,D*45
$GPVTG,14.05,T,,M,30.22,N,55.96,K,D*04
$MXPGN,01EFFF,7806,FFFFFFFFFFFF7F66*1A
$MXPGN,01EFFF,7806,FFFFFFFFFF7FFF84*16
$MXPGN,01EFFF,7806,FFFFFF001108CEA2*16
$MXPGN,01EFFF,7806,000000003F3DC8C8*69
$GPGGA,164629.070,3406.80783,N,07752.34503,W,2,10,1.24,-45.28,M,-36.43,M,,*48
$GPGLL,3406.80783,N,07752.34503,W,164629.070,A,D*44
$GPVTG,14.69,T,,M,30.11,N,55.76,K,D*00
$MXPGN,01EFFF,7806,FFFFFFFFFFFF7FE6*69
$MXPGN,01EFFF,7806,FFFFFFFFFF7FFF04*1E
$MXPGN,01EFFF,7806,FFFFFF001108CE22*65
$MXPGN,01EFFF,7806,FFFFFF03A0120143*1C
$MXPGN,01EFFF,7806,000000003F3DC968*1D
$GPGGA,164630.070,3406.81611,N,07752.34224,W,2,10,1.24,-45.02,M,-36.43,M,,*41
$GPGLL,3406.81611,N,07752.34224,W,164630.070,A,D*45
$GPVTG,15.57,T,,M,29.97,N,55.50,K,D*0E
$MXPGN,01EFFF,7806,FFFFFFFFFFFF7F86*14
$MXPGN,01EFFF,7806,FFFFFFFFFF7FFFA4*6F
$MXPGN,01EFFF,7806,FFFF02CC2A4E90C4*15
$MXPGN,01EFFF,7806,FFFFFF001108CEE2*12
$MXPGN,00EA01,6306,00EE00*66
$MXPGN,01EFFF,7806,000000003F3DCB08*60
$GPGGA,164631.066,3406.82438,N,07752.33952,W,2,10,1.24,-44.49,M,-36.43,M,,*4E
$GPGLL,3406.82438,N,07752.33952,W,164631.066,A,D*44
$GPVTG,15.30,T,,M,30.05,N,55.65,K,D*0A
$MXPGN,01EFFF,7806,FFFFFFFFFFFF0022*6B
$MXPGN,01EFFF,7806,FFFFFFFFFFFF7F46*18
$MXPGN,00EA02,6306,00EE00*65
$GLZDA,164631.316,14,07,2023,,*48
$MXPGN,00EA05,6306,00EE00*62
$MXPGN,01EFFF,7806,FFFFFF001108CE82*6F
$MXPGN,00EA00,6306,00EE00*67
$MXPGN,01EFFF,7806,FFFFFF03A11201A3*68
$MXPGN,01EFFF,7806,000000003F3DCFC8*17
$GPGGA,164632.070,3406.83256,N,07752.33669,W,2,10,1.24,-44.30,M,-36.43,M,,*4C
$GPRMC,164632.070,A,3406.83256,N,07752.33669,W,30.07,15.98,140723,,,D*7D
$GPVTG,15.98,T,,M,30.07,N,55.68,K,D*07
$MXPGN,01EFFF,7806,FFFFFFFFFFFF7FE6*69
$MXPGN,00EA04,6306,00EE00*63
$GLZDA,164632.320,14,07,2023,,*4E
$MXPGN,00EA03,6306,00EE00*64
$MXPGN,01EFFF,7806,FFFFFF001108CE22*65
$MXPGN,01EFFF,7806,FFFF02CD2A4E9044*65
$MXPGN,01EFFF,7806,000000003F3DC968*1D
$GPGGA,164633.070,3406.84059,N,07752.33368,W,2,10,1.24,-44.36,M,-36.43,M,,*45
$GPRMC,164633.070,A,3406.84059,N,07752.33368,W,29.74,16.78,140723,,,D*73
$GPVTG,16.78,T,,M,29.74,N,55.07,K,D*0F
$MXPGN,01EFFF,7806,FFFFFFFFFFFF7F86*14
$GLZDA,164633.320,14,07,2023,,*4F
$MXPGN,01EFFF,7806,FFFFFF001108CEC2*14
$MXPGN,01EFFF,7806,FFFFFF03A21201E3*6F
$MXPGN,01EFFF,7806,000000003F3DCA08*63
$GPGGA,164634.070,3406.84853,N,07752.33063,W,2,10,1.24,-44.56,M,-36.43,M,,*4E
$GPRMC,164634.070,A,3406.84853,N,07752.33063,W,29.48,17.66,140723,,,D*7F
$GPVTG,17.66,T,,M,29.48,N,54.59,K,D*04
$MXPGN,01EFFF,7806,FFFFFFFFFFFF7F26*1E
$GLZDA,164634.320,14,07,2023,,*48
$MXPGN,01EFFF,7806,FFFFFF001108CE62*61
$MXPGN,01EFFF,7806,000000003F3DCD88*6E
$GPGGA,164635.070,3406.85645,N,07752.32747,W,2,10,1.24,-44.17,M,-36.43,M,,*42
$GPGLL,3406.85645,N,07752.32747,W,164635.070,A,D*43
$GPVTG,17.63,T,,M,29.41,N,54.46,K,D*06
$MXPGN,01EFFF,7806,FFFFFFFFFFFF7FA6*6D
$MXPGN,01EFFF,7806,FFFFFFFFFF7FFFC4*6D
$MXPGN,01EFFF,7806,FFFF02CE2A4E90E4*15
$MXPGN,01EFFF,7806,FFFFFF001108CE02*67
$MXPGN,01EFFF,7806,FFFFFF03A3120123*19
$MXPGN,01EFFF,7806,000000003F3DD048*11
$GPGGA,164636.070,3406.86444,N,07752.32433,W,2,10,1.24,-43.58,M,-36.43,M,,*4D
$GPGLL,3406.86444,N,07752.32433,W,164636.070,A,D*40
$GPVTG,17.45,T,,M,29.62,N,54.85,K,D*0C
$MXPGN,01EFFF,7806,FFFFFFFFFFFF7F66*1A
$MXPGN,01EFFF,7806,FFFFFFFFFF7FFF84*16
$MXPGN,01EFFF,7806,FFFFFF001108CEA2*16
$MXPGN,01EFFF,7806,000000003F3DCFC8*17
$GPGGA,164637.070,3406.87235,N,07752.32120,W,2,10,1.24,-42.99,M,-36.43,M,,*46
$GPGLL,3406.87235,N,07752.32120,W,164637.070,A,D*47
$GPVTG,17.70,T,,M,29.72,N,55.04,K,D*03
$MXPGN,01EFFF,7806,FFFFFFFFFFFF7FE6*69
$MXPGN,01EFFF,7806,FFFFFFFFFF7FFF04*1E
$MXPGN,01EFFF,7806,FFFFFF001108CE22*65
$MXPGN,01EFFF,7806,FFFF02CF2A4E9044*67
$MXPGN,01EFFF,7806,FFFFFF03A4120163*1A
$MXPGN,01EFFF,7806,000000003F3DC988*13
$GPGGA,164638.070,3406.88029,N,07752.31796,W,2,10,1.24,-42.07,M,-36.43,M,,*46
$GPGLL,3406.88029,N,07752.31796,W,164638.070,A,D*40
$GPVTG,18.15,T,,M,29.79,N,55.17,K,D*06
$MXPGN,01EFFF,7806,FFFFFFFFFFFF7FA6*6D
$MXPGN,01EFFF,7806,FFFFFFFFFF7FFFC4*6D
$MXPGN,01EFFF,7806,FFFFFF001108CEE2*12
$MXPGN,01EFFF,7806,000000003F3DD008*15
$GPGGA,164639.070,3406.88815,N,07752.31467,W,2,10,1.24,-41.74,M,-36.43,M,,*4A
$GPGLL,3406.88815,N,07752.31467,W,164639.070,A,D*4B
$GPVTG,18.67,T,,M,29.48,N,54.59,K,D*0A
$MXPGN,01EFFF,7806,FFFFFFFFFFFF7F26*1E
$MXPGN,01EFFF,7806,FFFFFFFFFF7FFF44*1A
$MXPGN,01EFFF,7806,FFFFFF001108CE62*61
$MXPGN,01EFFF,7806,FFFFFF03A5120183*15
$MXPGN,01EFFF,7806,000000003F3DD2A8*66
$GPGGA,164640.070,3406.89596,N,07752.31145,W,2,10,1.24,-41.87,M,-36.43,M,,*4A
$GPGLL,3406.89596,N,07752.31145,W,164640.070,A,D*47
$GPVTG,18.83,T,,M,29.42,N,54.48,K,D*0A
$MXPGN,01EFFF,7806,FFFFFFFFFFFF7FC6*6F
$MXPGN,01EFFF,7806,FFFFFFFFFF7FFFE4*6B
$MXPGN,01EFFF,7806,FFFF02D02A4E9004*12
$MXPGN,01EFFF,7806,FFFFFF001108CE22*65
$MXPGN,01EFFF,7806,000000003F3DD148*10
$GPGGA,164641.066,3406.90371,N,07752.30827,W,2,10,1.24,-41.94,M,-36.43,M,,*45
$GPGLL,3406.90371,N,07752.30827,W,164641.066,A,D*4A
$GPVTG,18.66,T,,M,29.39,N,54.43,K,D*06
$MXPGN,01EFFF,7806,FFFFFFFFFFFF0062*6F
$MXPGN,01EFFF,7806,FFFFFFFFFFFF7F86*14
$GLZDA,164641.316,14,07,2023,,*4F
$MXPGN,01EFFF,7806,FFFFFF001108CEC2*14
$MXPGN,01EFFF,7806,FFFFFF03A61201E3*6B
$MXPGN,01EFFF,7806,000000003F3DD008*15
$MXPGN,00EA01,6306,00EE00*66
$GPGGA,164642.066,3406.91150,N,07752.30508,W,2,10,1.24,-41.94,M,-36.43,M,,*46
$GPRMC,164642.066,A,3406.91150,N,07752.30508,W,29.87,18.80,140723,,,D*78
$GPVTG,18.80,T,,M,29.87,N,55.31,K,D*0F
$MXPGN,01EFFF,7806,FFFFFFFFFFFF7F26*1E
$GLZDA,164642.316,14,07,2023,,*4C
$MXPGN,00EA02,6306,00EE00*65
$MXPGN,00EA04,6306,00EE00*63
$MXPGN,00EA05,6306,00EE00*62
$MXPGN,01EFFF,7806,FFFFFF001108CE62*61
$MXPGN,01EFFF,7806,FFFF02D12A4E9084*1B
$MXPGN,01EFFF,7806,000000003F3DCFA8*15
$MXPGN,00EA03,6306,00EE00*64
$GPGGA,164643.066,3406.91939,N,07752.30187,W,2,10,1.24,-41.94,M,-36.43,M,,*43
$GPRMC,164643.066,A,3406.91939,N,07752.30187,W,30.12,18.86,140723,,,D*7F
$GPVTG,18.86,T,,M,30.12,N,55.78,K,D*00
$MXPGN,01EFFF,7806,FFFFFFFFFFFF7FC6*6F
$GLZDA,164643.316,14,07,2023,,*4D
$MXPGN,01EFFF,7806,FFFFFF001108CE02*67
$MXPGN,00EA00,6306,00EE00*67
$MXPGN,01EFFF,7806,FFFFFF03A7120123*1D
$MXPGN,01EFFF,7806,000000003F3DD648*17
$GPGGA,164644.066,3406.92730,N,07752.29852,W,2,10,1.24,-41.87,M,-36.43,M,,*4B
$GPRMC,164644.066,A,3406.92730,N,07752.29852,W,30.01,19.06,140723,,,D*7E
$GPVTG,19.06,T,,M,30.01,N,55.57,K,D*06
$MXPGN,01EFFF,7806,FFFFFFFFFFFF7F66*1A
$GLZDA,164644.316,14,07,2023,,*4A
$MXPGN,01EFFF,7806,FFFFFF001108CEA2*16
$MXPGN,01EFFF,7806,000000003F3DD2C8*64
$GPGGA,164645.070,3406.93533,N,07752.29514,W,2,10,1.24,-41.68,M,-36.43,M,,*43
$GPGLL,3406.93533,N,07752.29514,W,164645.070,A,D*4F
$GPVTG,19.01,T,,M,30.26,N,56.04,K,D*01
$MXPGN,01EFFF,7806,FFFFFFFFFFFF7FE6*69
$MXPGN,01EFFF,7806,FFFFFFFFFF7FFF04*1E
$MXPGN,01EFFF,7806,FFFF02D22A4E9024*12
$MXPGN,01EFFF,7806,FFFFFF001108CE42*63
$MXPGN,01EFFF,7806,FFFFFF03A8120163*16
$MXPGN,01EFFF,7806,000000003F3DD588*18
$GPGGA,164646.070,3406.94334,N,07752.29178,W,2,10,1.24,-41.48,M,-36.43,M,,*4A
$GPGLL,3406.94334,N,07752.29178,W,164646.070,A,D*44
$GPVTG,19.01,T,,M,30.16,N,55.85,K,D*08
$MXPGN,01EFFF,7806,FFFFFFFFFFFF7FA6*6D
$MXPGN,01EFFF,7806,FFFFFFFFFF7FFFC4*6D
$MXPGN,01EFFF,7806,FFFFFF001108CEE2*12
$MXPGN,01EFFF,7806,000000003F3DD308*16
$GPGGA,164647.070,3406.95131,N,07752.28834,W,2,10,1.24,-41.48,M,-36.43,M,,*4D
$GPGLL,3406.95131,N,07752.28834,W,164647.070,A,D*43
$GPVTG,18.97,T,,M,30.28,N,56.07,K,D*02
$MXPGN,01EFFF,7806,FFFFFFFFFFFF7F26*1E
$MXPGN,01EFFF,7806,FFFFFFFFFF7FFF44*1A
$MXPGN,01EFFF,7806,FFFFFF001108CE62*61
$MXPGN,01EFFF,7806,FFFF02D32A4E9084*19
$MXPGN,01EFFF,7806,FFFFFF03A91201A3*60
$MXPGN,01EFFF,7806,000000003F3DCFC8*17
$GPGGA,164648.066,3406.95932,N,07752.28502,W,2,10,1.24,-41.35,M,-36.43,M,,*4C
$GPGLL,3406.95932,N,07752.28502,W,164648.066,A,D*48
$GPVTG,18.29,T,,M,30.12,N,55.78,K,D*05
$MXPGN,01EFFF,7806,FFFFFFFFFFFF7FE6*69
$MXPGN,01EFFF,7806,FFFFFFFFFF7FFF04*1E
$MXPGN,01EFFF,7806,FFFFFF001108CE22*65
$MXPGN,01EFFF,7806,000000003F3DD248*13
$GPGGA,164649.066,3406.96735,N,07752.28186,W,2,10,1.24,-41.28,M,-36.43,M,,*43
$GPGLL,3406.96735,N,07752.28186,W,164649.066,A,D*4B
$GPVTG,17.70,T,,M,30.30,N,56.11,K,D*0A
$MXPGN,01EFFF,7806,FFFFFFFFFFFF7F66*1A
$MXPGN,01EFFF,7806,FFFFFFFFFF7FFF84*16
$MXPGN,01EFFF,7806,FFFFFF001108CEA2*16
$MXPGN,01EFFF,7806,FFFFFF03AA1201C3*1A
$MXPGN,01EFFF,7806,000000003F3DCDE8*13
$GPGGA,164650.066,3406.97554,N,07752.27882,W,2,10,1.24,-41.41,M,-36.43,M,,*42
$GPGLL,3406.97554,N,07752.27882,W,164650.066,A,D*45
$GPVTG,16.30,T,,M,30.67,N,56.80,K,D*05
$MXPGN,01EFFF,7806,FFFFFFFFFFFF7F06*1C
$MXPGN,01EFFF,7806,FFFFFFFFFF7FFF24*1C
$MXPGN,01EFFF,7806,FFFF02D42A4E9044*12
$MXPGN,01EFFF,7806,FFFFFF001108CE62*61
$MXPGN,01EFFF,7806,000000003F3DD688*1B
$GPGGA,164651.066,3406.98376,N,07752.27606,W,2,10,1.24,-41.48,M,-36.43,M,,*41
$GPGLL,3406.98376,N,07752.27606,W,164651.066,A,D*4F
$GPVTG,14.91,T,,M,30.65,N,56.76,K,D*07
$MXPGN,01EFFF,7806,FFFFFFFFFFFF00A2*18
$MXPGN,01EFFF,7806,FFFFFFFFFFFF7FC6*6F
$GLZDA,164651.316,14,07,2023,,*4E
$MXPGN,01EFFF,7806,FFFFFF001108CE02*67
$MXPGN,01EFFF,7806,FFFFFF03AB120123*68
$MXPGN,01EFFF,7806,000000003F3DD348*12
$GPGGA,164652.066,3406.99186,N,07752.27347,W,2,10,1.24,-41.41,M,-36.43,M,,*47
$GPRMC,164652.066,A,3406.99186,N,07752.27347,W,30.05,14.63,140723,,,D*72
$GPVTG,14.63,T,,M,30.05,N,55.65,K,D*0D
$MXPGN,01EFFF,7806,FFFFFFFFFFFF7F66*1A
$GLZDA,164652.316,14,07,2023,,*4D
$MXPGN,01EFFF,7806,FFFFFF001108CEA2*16
$MXPGN,00EA05,6306,00EE00*62
$MXPGN,01EFFF,7806,FFFF02D52A4E90C4*64
$MXPGN,01EFFF,7806,000000003F3DD0E8*60
$GPGGA,164653.066,3406.99994,N,07752.27126,W,2,10,1.24,-41.22,M,-36.43,M,,*4D
$GPRMC,164653.066,A,3406.99994,N,07752.27126,W,30.22,12.50,140723,,,D*7E
$GPVTG,12.50,T,,M,30.22,N,55.96,K,D*02
$MXPGN,01EFFF,7806,FFFFFFFFFFFF7F06*1C
$GLZDA,164653.316,14,07,2023,,*4C
$MXPGN,00EA04,6306,00EE00*63
$MXPGN,00EA01,6306,00EE00*66
$MXPGN,01EFFF,7806,FFFFFF001108CE42*63
$MXPGN,00EA03,6306,00EE00*64
$MXPGN,00EA02,6306,00EE00*65
$MXPGN,01EFFF,7806,FFFFFF03AC120163*6D
$MXPGN,01EFFF,7806,000000003F3DD988*14
$GPGGA,164654.066,3407.00801,N,07752.26922,W,2,10,1.24,-40.89,M,-36.43,M,,*4B
$GPRMC,164654.066,A,3407.00801,N,07752.26922,W,29.81,11.83,140723,,,D*74
$GPVTG,11.83,T,,M,29.81,N,55.20,K,D*03
$MXPGN,01EFFF,7806,FFFFFFFFFFFF7FA6*6D
$GLZDA,164654.316,14,07,2023,,*4B
$MXPGN,01EFFF,7806,FFFFFF001108CEE2*12
$MXPGN,01EFFF,7806,000000003F3DD108*14
$GPGGA,164655.066,3407.01596,N,07752.26723,W,2,10,1.24,-40.50,M,-36.43,M,,*43
$GPGLL,3407.01596,N,07752.26723,W,164655.066,A,D*45
$GPVTG,11.69,T,,M,29.07,N,53.83,K,D*06
$MXPGN,01EFFF,7806,FFFFFFFFFFFF7F26*1E
$MXPGN,01EFFF,7806,FFFFFFFFFF7FFF44*1A
$MXPGN,01EFFF,7806,FFFF02D62A4E9064*12
$MXPGN,00EA00,6306,00EE00*67
$MXPGN,01EFFF,7806,FFFFFF001108CE82*6F
$MXPGN,01EFFF,7806,FFFFFF03AD1201A3*1D
$MXPGN,01EFFF,7806,000000003F3DD3C8*65
$GPGGA,164656.070,3407.02366,N,07752.26529,W,2,10,1.24,-39.84,M,-36.43,M,,*42
$GPGLL,3407.02366,N,07752.26529,W,164656.070,A,D*43
$GPVTG,11.32,T,,M,28.06,N,51.96,K,D*0E
$MXPGN,01EFFF,7806,FFFFFFFFFFFF7FE6*69
$MXPGN,01EFFF,7806,FFFFFFFFFF7FFF04*1E
$MXPGN,01EFFF,7806,FFFFFF001108CE22*65
$MXPGN,01EFFF,7806,000000003F3DDC48*62
$GPGGA,164657.070,3407.03120,N,07752.26351,W,2,10,1.24,-39.51,M,-36.43,M,,*43
$GPGLL,3407.03120,N,07752.26351,W,164657.070,A,D*4A
$GPVTG,10.79,T,,M,27.54,N,51.00,K,D*07
$MXPGN,01EFFF,7806,FFFFFFFFFFFF7F66*1A
$MXPGN,01EFFF,7806,FFFFFFFFFF7FFF84*16
$MXPGN,01EFFF,7806,FFFFFF001108CEA2*16
$MXPGN,01EFFF,7806,FFFF02D72A4E90C4*66
$MXPGN,01EFFF,7806,FFFFFF03AE1201E3*18
$MXPGN,01EFFF,7806,000000003F3DDA08*64
$GPGGA,164658.070,3407.03861,N,07752.26190,W,2,10,1.24,-39.97,M,-36.43,M,,*45
$GPGLL,3407.03861,N,07752.26190,W,164658.070,A,D*46
$GPVTG,10.70,T,,M,27.23,N,50.42,K,D*09
$MXPGN,01EFFF,7806,FFFFFFFFFFFF7F26*1E
$MXPGN,01EFFF,7806,FFFFFFFFFF7FFF44*1A
$MXPGN,01EFFF,7806,FFFFFF001108CE62*61
$MXPGN,01EFFF,7806,000000003F3DDA88*6C
$GPGGA,164659.070,3407.04583,N,07752.26013,W,2,10,1.24,-41.09,M,-36.43,M,,*40
$GPGLL,3407.04583,N,07752.26013,W,164659.070,A,D*4B
$GPVTG,11.95,T,,M,26.70,N,49.44,K,D*0A
$MXPGN,01EFFF,7806,FFFFFFFFFFFF7FA6*6D
$MXPGN,01EFFF,7806,FFFFFFFFFF7FFFC4*6D
$MXPGN,01EFFF,7806,FFFFFF001108CEE2*12
$MXPGN,01EFFF,7806,FFFFFF03AF120103*6E
$MXPGN,01EFFF,7806,000000003F3DD828*1F
$GPGGA,164700.070,3407.05303,N,07752.25821,W,2,10,1.24,-41.54,M,-36.43,M,,*40
$GPGLL,3407.05303,N,07752.25821,W,164700.070,A,D*43
$GPVTG,13.66,T,,M,26.47,N,49.02,K,D*02
$MXPGN,01EFFF,7806,FFFFFFFFFFFF7F46*18
$MXPGN,01EFFF,7806,FFFFFFFFFF7FFF64*18
$MXPGN,01EFFF,7806,FFFF02D82A4E9084*12
$MXPGN,01EFFF,7806,FFFFFF001108CEA2*16
$MXPGN,01EFFF,7806,000000003F3DD7C8*61
$GPGGA,164701.070,3407.06016,N,07752.25610,W,2,10,1.24,-41.61,M,-36.43,M,,*4F
$GPGLL,3407.06016,N,07752.25610,W,164701.070,A,D*4A
$GPVTG,14.80,T,,M,26.26,N,48.63,K,D*0C
$MXPGN,01EFFF,7806,FFFFFFFFFFFF00E2*1C
$MXPGN,01EFFF,7806,FFFFFFFFFFFF7F06*1C
$GLZDA,164701.320,14,07,2023,,*4F
$MXPGN,01EFFF,7806,FFFFFF001108CE42*63
$MXPGN,01EFFF,7806,FFFFFF03B0120163*1D
$MXPGN,01EFFF,7806,000000003F3DD888*15
$GPGGA,164702.070,3407.06709,N,07752.25391,W,2,10,1.24,-41.68,M,-36.43,M,,*40
$GPRMC,164702.070,A,3407.06709,N,07752.25391,W,25.89,15.17,140723,,,D*7C
$GPVTG,15.17,T,,M,25.89,N,47.94,K,D*02
$MXPGN,01EFFF,7806,FFFFFFFFFFFF7FA6*6D
$GLZDA,164702.320,14,07,2023,,*4C
$MXPGN,01EFFF,7806,FFFFFF001108CEE2*12
$MXPGN,01EFFF,7806,FFFF02D92A4E9004*1B
$MXPGN,01EFFF,7806,000000003F3DDA28*66
$GPGGA,164703.070,3407.07401,N,07752.25171,W,2,10,1.24,-41.87,M,-36.43,M,,*46
$GPRMC,164703.070,A,3407.07401,N,07752.25171,W,26.08,15.68,140723,,,D*79
$GPVTG,15.68,T,,M,26.08,N,48.30,K,D*01
$MXPGN,01EFFF,7806,FFFFFFFFFFFF7F46*18
$GLZDA,164703.320,14,07,2023,,*4D
$MXPGN,01EFFF,7806,FFFFFF001108CE82*6F
$MXPGN,00EA05,6306,00EE00*62
$MXPGN,01EFFF,7806,FFFFFF03B11201A3*6B
$MXPGN,01EFFF,7806,000000003F3DDCC8*15
$GPGGA,164704.070,3407.08087,N,07752.24941,W,2,10,1.24,-41.94,M,-36.43,M,,*4C
$GPRMC,164704.070,A,3407.08087,N,07752.24941,W,25.50,16.54,140723,,,D*73
$GPVTG,16.54,T,,M,25.50,N,47.22,K,D*0F
$MXPGN,01EFFF,7806,FFFFFFFFFFFF7FE6*69
$GLZDA,164704.320,14,07,2023,,*4A
$MXPGN,01EFFF,7806,FFFFFF001108CE22*65
$MXPGN,00EA04,6306,00EE00*63
$MXPGN,01EFFF,7806,000000003F3DD448*15
$GPGGA,164705.070,3407.08755,N,07752.24695,W,2,10,1.24,-41.81,M,-36.43,M,,*47
$GPGLL,3407.08755,N,07752.24695,W,164705.070,A,D*4C
$GPVTG,16.92,T,,M,25.13,N,46.54,K,D*02
$MXPGN,01EFFF,7806,FFFFFFFFFFFF7F66*1A
$MXPGN,01EFFF,7806,FFFFFFFFFF7FFF84*16
$MXPGN,00EA02,6306,00EE00*65
$MXPGN,00EA01,6306,00EE00*66
$MXPGN,01EFFF,7806,FFFF02DA2A4E90A4*12
$MXPGN,00EA03,6306,00EE00*64
$MXPGN,01EFFF,7806,FFFFFF001108CEC2*14
$MXPGN,01EFFF,7806,FFFFFF03B21201E3*6C
$MXPGN,01EFFF,7806,000000003F3DD508*10
$GPGGA,164706.070,3407.09413,N,07752.24442,W,2,10,1.24,-41.87,M,-36.43,M,,*4A
$GPGLL,3407.09413,N,07752.24442,W,164706.070,A,D*47
$GPVTG,16.95,T,,M,24.76,N,45.85,K,D*08
$MXPGN,01EFFF,7806,FFFFFFFFFFFF7F26*1E
$MXPGN,01EFFF,7806,FFFFFFFFFF7FFF44*1A
$MXPGN,01EFFF,7806,FFFFFF001108CE62*61
$MXPGN,01EFFF,7806,000000003F3DE088*1C
$GPGGA,164707.070,3407.10057,N,07752.24224,W,2,10,1.24,-42.13,M,-36.43,M,,*4F
$GPGLL,3407.10057,N,07752.24224,W,164707.070,A,D*4C
$GPVTG,16.06,T,,M,23.90,N,44.26,K,D*05
$MXPGN,01EFFF,7806,FFFFFFFFFFFF7FA6*6D
$MXPGN,01EFFF,7806,FFFFFFFFFF7FFFC4*6D
$MXPGN,00EA00,6306,00EE00*67
$MXPGN,01EFFF,7806,FFFFFF001108CEE2*12
$MXPGN,01EFFF,7806,FFFF02DB2A4E9004*60
$MXPGN,01EFFF,7806,FFFFFF03B3120123*1A
$MXPGN,01EFFF,7806,000000003F3DDF48*67
$GPGGA,164708.070,3407.10673,N,07752.24019,W,2,10,1.24,-42.13,M,-36.43,M,,*4C
$GPGLL,3407.10673,N,07752.24019,W,164708.070,A,D*4F
$GPVTG,16.24,T,,M,22.74,N,42.11,K,D*0C
$MXPGN,01EFFF,7806,FFFFFFFFFFFF7F66*1A
$MXPGN,01EFFF,7806,FFFFFFFFFF7FFF84*16
$MXPGN,01EFFF,7806,FFFFFF001108CEA2*16
$MXPGN,01EFFF,7806,000000003F3DDFC8*10
$GPGGA,164709.070,3407.11264,N,07752.23822,W,2,10,1.24,-42.07,M,-36.43,M,,*4C
$GPGLL,3407.11264,N,07752.23822,W,164709.070,A,D*4A
$GPVTG,15.95,T,,M,21.80,N,40.37,K,D*0B
$MXPGN,01EFFF,7806,FFFFFFFFFFFF7FE6*69
$MXPGN,01EFFF,7806,FFFFFFFFFF7FFF04*1E
$MXPGN,01EFFF,7806,FFFFFF001108CE22*65
$MXPGN,01EFFF,7806,FFFFFF03B4120143*1B
$MXPGN,01EFFF,7806,000000003F3DDF68*65
$GPGGA,164710.070,3407.11829,N,07752.23628,W,2,10,1.24,-41.81,M,-36.43,M,,*4E
$GPGLL,3407.11829,N,07752.23628,W,164710.070,A,D*45
$GPVTG,16.22,T,,M,20.85,N,38.61,K,D*0C
$MXPGN,01EFFF,7806,FFFFFFFFFFFF7F86*14
$MXPGN,01EFFF,7806,FFFFFFFFFF7FFFA4*6F
$MXPGN,01EFFF,7806,FFFF02DC2A4E90C4*12
$MXPGN,01EFFF,7806,FFFFFF001108CEE2*12
$MXPGN,01EFFF,7806,000000003F3DD708*12
$GPGGA,164711.070,3407.12368,N,07752.23429,W,2,10,1.24,-41.74,M,-36.43,M,,*4B
$GPGLL,3407.12368,N,07752.23429,W,164711.070,A,D*4A
$GPVTG,17.63,T,,M,20.09,N,37.20,K,D*06
$MXPGN,01EFFF,7806,FFFFFFFFFFFF0022*6B
$MXPGN,01EFFF,7806,FFFFFFFFFFFF7F46*18
$GLZDA,164711.320,14,07,2023,,*4E
$MXPGN,01EFFF,7806,FFFFFF001108CE82*6F
$MXPGN,01EFFF,7806,FFFFFF03B51201A3*6F
$MXPGN,01EFFF,7806,000000003F3DD8C8*6E
$GPGGA,164712.070,3407.12880,N,07752.23239,W,2,10,1.24,-42.20,M,-36.43,M,,*40
$GPRMC,164712.070,A,3407.12880,N,07752.23239,W,19.06,17.51,140723,,,D*7B
$GPVTG,17.51,T,,M,19.06,N,35.29,K,D*09
$MXPGN,01EFFF,7806,FFFFFFFFFFFF7FE6*69
$GLZDA,164712.320,14,07,2023,,*4D
$MXPGN,01EFFF,7806,FFFFFF001108CE22*65
$MXPGN,01EFFF,7806,FFFF02DD2A4E9044*62
$MXPGN,01EFFF,7806,000000003F3DE068*12
$GPGGA,164713.070,3407.13371,N,07752.23045,W,2,10,1.25,-42.53,M,-36.43,M,,*49
$GPRMC,164713.070,A,3407.13371,N,07752.23045,W,18.52,17.71,140723,,,D*75
$GPVTG,17.71,T,,M,18.52,N,34.29,K,D*0A
$MXPGN,01EFFF,7806,FFFFFFFFFFFF7F86*14
$GLZDA,164713.320,14,07,2023,,*4C
$MXPGN,01EFFF,7806,FFFFFF001108CEC2*14
$MXPGN,01EFFF,7806,FFFFFF03B61201E3*68
$MXPGN,01EFFF,7806,000000003F3DDC08*66
$GPGGA,164714.070,3407.13841,N,07752.22844,W,2,10,1.24,-42.53,M,-36.43,M,,*4F
$GPRMC,164714.070,A,3407.13841,N,07752.22844,W,17.57,18.87,140723,,,D*7E
$GPVTG,18.87,T,,M,17.57,N,32.53,K,D*0D
$MXPGN,01EFFF,7806,FFFFFFFFFFFF7F26*1E
$GLZDA,164714.320,14,07,2023,,*4B
$MXPGN,01EFFF,7806,FFFFFF001108CE62*61
$MXPGN,00EA04,6306,00EE00*63
$MXPGN,01EFFF,7806,000000003F3DE388*1F
$GPGGA,164715.070,3407.14275,N,07752.22658,W,2,10,1.25,-42.53,M,-36.43,M,,*46
$GPRMC,164715.070,A,3407.14275,N,07752.22658,W,16.50,19.85,140723,,,D*73
$GPVTG,19.85,T,,M,16.50,N,30.55,K,D*0C
$MXPGN,01EFFF,7806,FFFFFFFFFFFF7FA6*6D
$MXPGN,01EFFF,7806,FFFFFFFFFF7FFFC4*6D
$MXPGN,01EFFF,7806,FFFF02DE2A4E90E4*12
$MXPGN,00EA05,6306,00EE00*62
$MXPGN,01EFFF,7806,FFFFFF001108CE02*67
$MXPGN,01EFFF,7806,FFFFFF03B7120123*1E
$MXPGN,01EFFF,7806,000000003F3DDC48*62
$GPGGA,164716.070,3407.14676,N,07752.22485,W,2,10,1.25,-42.07,M,-36.43,M,,*41
$GPGLL,3407.14676,N,07752.22485,W,164716.070,A,D*46
$GPVTG,20.08,T,,M,15.22,N,28.18,K,D*05
$MXPGN,01EFFF,7806,FFFFFFFFFFFF7F66*1A
$MXPGN,01EFFF,7806,FFFFFFFFFF7FFF84*16
$MXPGN,00EA02,6306,00EE00*65
$MXPGN,00EA01,6306,00EE00*66
$MXPGN,01EFFF,7806,FFFFFF001108CEA2*16
$MXPGN,00EA03,6306,00EE00*64
$MXPGN,01EFFF,7806,000000003F3DE4C8*63
$GPGGA,164717.070,3407.15045,N,07752.22310,W,2,10,1.25,-41.41,M,-36.43,M,,*4D
$GPGLL,3407.15045,N,07752.22310,W,164717.070,A,D*4B
$GPVTG,20.92,T,,M,14.24,N,26.37,K,D*02
$MXPGN,01EFFF,7806,FFFFFFFFFFFF7FE6*69
$MXPGN,01EFFF,7806,FFFFFFFFFF7FFF04*1E
$MXPGN,00EA00,6306,00EE00*67
$MXPGN,01EFFF,7806,FFFFFF001108CE22*65
$MXPGN,01EFFF,7806,FFFF02DF2A4E9044*60
$MXPGN,01EFFF,7806,FFFFFF03B8120163*15
$MXPGN,01EFFF,7806,000000003F3DDF88*6B
$GPGGA,164718.070,3407.15386,N,07752.22139,W,2,10,1.25,-40.50,M,-36.43,M,,*46
$GPGLL,3407.15386,N,07752.22139,W,164718.070,A,D*41
$GPVTG,21.78,T,,M,13.35,N,24.72,K,D*03
$MXPGN,01EFFF,7806,FFFFFFFFFFFF7FA6*6D
$MXPGN,01EFFF,7806,FFFFFFFFFF7FFFC4*6D
$MXPGN,01EFFF,7806,FFFFFF001108CEE2*12
$MXPGN,01EFFF,7806,000000003F3DE208*16
$GPGGA,164719.070,3407.15694,N,07752.21984,W,2,10,1.25,-40.10,M,-36.43,M,,*48
$GPGLL,3407.15694,N,07752.21984,W,164719.070,A,D*4B
$GPVTG,21.42,T,,M,12.28,N,22.74,K,D*07
$MXPGN,01EFFF,7806,FFFFFFFFFFFF7F26*1E
$MXPGN,01EFFF,7806,FFFFFFFFFF7FFF44*1A
$MXPGN,01EFFF,7806,FFFFFF001108CE62*61
$MXPGN,01EFFF,7806,FFFFFF03B9120183*1A
$MXPGN,01EFFF,7806,000000003F3DDEA8*11
$GPGGA,164720.070,3407.15984,N,07752.21827,W,2,10,1.25,-39.97,M,-36.43,M,,*45
$GPGLL,3407.15984,N,07752.21827,W,164720.070,A,D*47
$GPVTG,22.07,T,,M,11.48,N,21.26,K,D*04
$MXPGN,01EFFF,7806,FFFFFFFFFFFF7FC6*6F
$MXPGN,01EFFF,7806,FFFFFFFFFF7FFFE4*6B
$MXPGN,01EFFF,7806,FFFF02E02A4E9004*13
$MXPGN,01EFFF,7806,FFFFFF001108CE22*65
$MXPGN,01EFFF,7806,000000003F3DDE48*64
$GPGGA,164721.070,3407.16253,N,07752.21683,W,2,10,1.25,-39.91,M,-36.43,M,,*40
$GPGLL,3407.16253,N,07752.21683,W,164721.070,A,D*44
$GPVTG,21.75,T,,M,10.63,N,19.68,K,D*0B
$MXPGN,01EFFF,7806,FFFFFFFFFFFF0062*6F
$MXPGN,01EFFF,7806,FFFFFFFFFFFF7F86*14
$GLZDA,164721.320,14,07,2023,,*4D
$MXPGN,01EFFF,7806,FFFFFF001108CEC2*14
$MXPGN,01EFFF,7806,FFFFFF03BA1201E3*1F
$MXPGN,01EFFF,7806,000000003F3DE608*12
$GPGGA,164722.070,3407.16502,N,07752.21566,W,2,10,1.25,-39.84,M,-36.43,M,,*4C
$GPRMC,164722.070,A,3407.16502,N,07752.21566,W,9.91,22.53,140723,,,D*4F
$GPVTG,22.53,T,,M,9.91,N,18.35,K,D*30
$MXPGN,01EFFF,7806,FFFFFFFFFFFF7F26*1E
$GLZDA,164722.320,14,07,2023,,*4E
$MXPGN,01EFFF,7806,FFFFFF001108CE62*61
$MXPGN,01EFFF,7806,FFFF02E12A4E9084*1A
$MXPGN,01EFFF,7806,000000003F3DE1A8*64
$GPGGA,164723.070,3407.16741,N,07752.21467,W,2,10,1.25,-39.64,M,-36.43,M,,*46
$GPRMC,164723.070,A,3407.16741,N,07752.21467,W,9.40,19.22,140723,,,D*49
$GPVTG,19.22,T,,M,9.40,N,17.40,K,D*3F
$MXPGN,01EFFF,7806,FFFFFFFFFFFF7FC6*6F
$GLZDA,164723.320,14,07,2023,,*4F
$MXPGN,01EFFF,7806,FFFFFF001108CE02*67
$MXPGN,01EFFF,7806,FFFFFF03BB120123*6B
$MXPGN,01EFFF,7806,000000003F3DE148*11
$GPGGA,164724.070,3407.16962,N,07752.21365,W,2,10,1.25,-39.58,M,-36.43,M,,*44
$GPRMC,164724.070,A,3407.16962,N,07752.21365,W,8.59,20.53,140723,,,D*41
$GPVTG,20.53,T,,M,8.59,N,15.90,K,D*35
$MXPGN,01EFFF,7806,FFFFFFFFFFFF7F66*1A
$GLZDA,164724.320,14,07,2023,,*48
$MXPGN,01EFFF,7806,FFFFFF001108CEA2*16
$MXPGN,01EFFF,7806,000000003F3DDBC8*14
$GPGGA,164725.070,3407.17160,N,07752.21264,W,2,10,1.24,-39.58,M,-36.43,M,,*4F
$GPGLL,3407.17160,N,07752.21264,W,164725.070,A,D*4F
$GPVTG,21.52,T,,M,7.91,N,14.64,K,D*34
$MXPGN,01EFFF,7806,FFFFFFFFFFFF7FE6*69
$MXPGN,01EFFF,7806,FFFFFFFFFF7FFF04*1E
$GLZDA,164725.320,14,07,2023,,*49
$MXPGN,01EFFF,7806,FFFF02E22A4E9024*13
$MXPGN,01EFFF,7806,FFFFFF001108CE42*63
$MXPGN,01EFFF,7806,FFFFFF03BC120163*6E
$MXPGN,01EFFF,7806,000000003F3DE188*1D
$GPGGA,164726.214,3407.17336,N,07752.21183,W,2,10,1.25,-39.32,M,-36.43,M,,*4A
$GPRMC,164726.214,A,3407.17336,N,07752.21183,W,7.58,20.97,140723,,,D*45
$GPVTG,20.97,T,,M,7.58,N,14.03,K,D*38
$MXPGN,01EFFF,7806,FFFFFFFFFF7FFFC4*6D
$GLZDA,164726.464,14,07,2023,,*4D
$MXPGN,01EFFF,7806,FFFFFF001108CEE2*12
$MXPGN,01EFFF,7806,000000003F3DE608*12
$GPGGA,164727.070,3407.17535,N,07752.21109,W,2,10,1.25,-39.32,M,-36.43,M,,*4C
$GPGLL,3407.17535,N,07752.21109,W,164727.070,A,D*41
$GPVTG,19.13,T,,M,7.44,N,13.77,K,D*37
$MXPGN,01EFFF,7806,FFFFFFFFFFFF7F26*1E
$MXPGN,01EFFF,7806,FFFFFFFFFF7FFF44*1A
$GLZDA,164727.320,14,07,2023,,*4B
$MXPGN,01EFFF,7806,FFFFFF001108CE62*61
$MXPGN,01EFFF,7806,FFFF02E32A4E9084*18
$MXPGN,01EFFF,7806,FFFFFF03BD1201A3*1E
$MXPGN,01EFFF,7806,000000003F3DEBC8*15
$GPGGA,164728.070,3407.17733,N,07752.21036,W,2,10,1.25,-39.32,M,-36.43,M,,*4A
$GPRMC,164728.070,A,3407.17733,N,07752.21036,W,7.77,18.67,140723,,,D*4C
$GPVTG,18.67,T,,M,7.77,N,14.39,K,D*38
$MXPGN,01EFFF,7806,FFFFFFFFFF7FFF04*1E
$GLZDA,164728.320,14,07,2023,,*44
$MXPGN,01EFFF,7806,FFFFFF001108CE22*65
$MXPGN,01EFFF,7806,000000003F3DE548*15
$GPGGA,164729.070,3407.17954,N,07752.20951,W,2,10,1.25,-39.38,M,-36.43,M,,*47
$GPGLL,3407.17954,N,07752.20951,W,164729.070,A,D*40
$GPVTG,19.38,T,,M,8.51,N,15.76,K,D*32
$MXPGN,01EFFF,7806,FFFFFFFFFFFF7F66*1A
$MXPGN,01EFFF,7806,FFFFFFFFFF7FFF84*16
$GLZDA,164729.320,14,07,2023,,*45
$MXPGN,01EFFF,7806,FFFFFF001108CEA2*16
$MXPGN,01EFFF,7806,FFFFFF03BE1201C3*1D
$MXPGN,01EFFF,7806,000000003F3DE4E8*65
$GPGGA,164730.070,3407.18190,N,07752.20855,W,2,10,1.25,-39.58,M,-36.43,M,,*43
$GPRMC,164730.070,A,3407.18190,N,07752.20855,W,9.00,19.48,140723,,,D*4B
$GPVTG,19.48,T,,M,9.00,N,16.66,K,D*32
$MXPGN,01EFFF,7806,FFFFFFFFFF7FFF24*1C
$GLZDA,164730.320,14,07,2023,,*4D
$MXPGN,01EFFF,7806,FFFF02E42A4E9044*13
$MXPGN,01EFFF,7806,FFFFFF001108CE62*61
$MXPGN,01EFFF,7806,000000003F3DE188*1D
$GPGGA,164731.070,3407.18429,N,07752.20750,W,2,10,1.25,-39.84,M,-36.43,M,,*4E
$GPGLL,3407.18429,N,07752.20750,W,164731.070,A,D*4E
$GPVTG,18.80,T,,M,9.21,N,17.05,K,D*30
$MXPGN,01EFFF,7806,FFFFFFFFFFFF00A2*18
$MXPGN,01EFFF,7806,FFFFFFFFFFFF7FC6*6F
$MXPGN,00EA00,6306,00EE00*67
$GLZDA,164731.320,14,07,2023,,*4C
$MXPGN,00EA01,6306,00EE00*66
$MXPGN,00EA02,6306,00EE00*65
$MXPGN,00EA03,6306,00EE00*64
$MXPGN,01EFFF,7806,FFFFFF001108CE02*67
$MXPGN,00EA05,6306,00EE00*62
$MXPGN,01EFFF,7806,FFFFFF03BF120123*6F
$MXPGN,01EFFF,7806,000000003F3DE948*19
$GPGGA,164732.070,3407.18675,N,07752.20652,W,2,10,1.25,-40.23,M,-36.43,M,,*46
$GPRMC,164732.070,A,3407.18675,N,07752.20652,W,9.29,17.35,140723,,,D*43
$GPVTG,17.35,T,,M,9.29,N,17.20,K,D*3E
$MXPGN,00EA04,6306,00EE00*63
$MXPGN,01EFFF,7806,FFFFFFFFFF7FFF84*16
$GLZDA,164732.320,14,07,2023,,*4F
$MXPGN,01EFFF,7806,FFFFFF001108CEA2*16
$MXPGN,01EFFF,7806,FFFF02E52A4E90C4*65
$MXPGN,01EFFF,7806,000000003F3DE9E8*68
$GPGGA,164733.070,3407.18929,N,07752.20569,W,2,10,1.25,-40.30,M,-36.43,M,,*48
$GPRMC,164733.070,A,3407.18929,N,07752.20569,W,9.27,16.40,140723,,,D*42
$GPVTG,16.40,T,,M,9.27,N,17.16,K,D*36
$MXPGN,01EFFF,7806,FFFFFFFFFFFF7F06*1C
$GLZDA,164733.320,14,07,2023,,*4E
$MXPGN,01EFFF,7806,FFFFFF001108CE42*63
$MXPGN,01EFFF,7806,FFFFFF03C0120163*1C
$MXPGN,01EFFF,7806,000000003F3DE888*14
$GPGGA,164734.070,3407.19181,N,07752.20499,W,2,10,1.25,-40.23,M,-36.43,M,,*48
$GPRMC,164734.070,A,3407.19181,N,07752.20499,W,9.23,14.35,140723,,,D*44
$GPVTG,14.35,T,,M,9.23,N,17.09,K,D*3C
$MXPGN,01EFFF,7806,FFFFFFFFFFFF7FA6*6D
$GLZDA,164734.320,14,07,2023,,*49
$MXPGN,01EFFF,7806,FFFFFF001108CEE2*12
$MXPGN,01EFFF,7806,000000003F3DE808*1C
$GPGGA,164735.070,3407.19432,N,07752.20430,W,2,10,1.25,-40.17,M,-36.43,M,,*40
$GPGLL,3407.19432,N,07752.20430,W,164735.070,A,D*44
$GPVTG,13.78,T,,M,9.11,N,16.87,K,D*34
$MXPGN,01EFFF,7806,FFFFFFFFFFFF7F26*1E
$MXPGN,01EFFF,7806,FFFFFFFFFF7FFF44*1A
$GLZDA,164735.320,14,07,2023,,*48
$MXPGN,01EFFF,7806,FFFF02E62A4E9064*13
$MXPGN,01EFFF,7806,FFFFFF001108CE82*6F
$MXPGN,01EFFF,7806,FFFFFF03C11201A3*6A
$MXPGN,01EFFF,7806,000000003F3DE7C8*60
$GPGGA,164736.070,3407.19672,N,07752.20365,W,2,10,1.25,-40.23,M,-36.43,M,,*45
$GPRMC,164736.070,A,3407.19672,N,07752.20365,W,8.90,13.49,140723,,,D*4C
$GPVTG,13.49,T,,M,8.90,N,16.48,K,D*3D
$MXPGN,01EFFF,7806,FFFFFFFFFF7FFF04*1E
$GLZDA,164736.320,14,07,2023,,*4B
$MXPGN,01EFFF,7806,FFFFFF001108CE22*65
$MXPGN,01EFFF,7806,000000003F3DE648*16
$GPGGA,164737.070,3407.19911,N,07752.20296,W,2,10,1.25,-40.23,M,-36.43,M,,*43
$GPGLL,3407.19911,N,07752.20296,W,164737.070,A,D*40
$GPVTG,13.29,T,,M,8.70,N,16.11,K,D*39
$MXPGN,01EFFF,7806,FFFFFFFFFFFF7F66*1A
$MXPGN,01EFFF,7806,FFFFFFFFFF7FFF84*16
$GLZDA,164737.320,14,07,2023,,*4A
$MXPGN,01EFFF,7806,FFFFFF001108CEA2*16
$MXPGN,01EFFF,7806,FFFF02E72A4E90C4*67
$MXPGN,01EFFF,7806,FFFFFF03C21201E3*6D
$MXPGN,01EFFF,7806,000000003F3DE408*10
$GPGGA,164738.070,3407.20144,N,07752.20232,W,2,10,1.25,-40.17,M,-36.43,M,,*47
$GPRMC,164738.070,A,3407.20144,N,07752.20232,W,8.65,13.32,140723,,,D*4F
$GPVTG,13.32,T,,M,8.65,N,16.01,K,D*36
$MXPGN,01EFFF,7806,FFFFFFFFFF7FFF44*1A
$GLZDA,164738.320,14,07,2023,,*45
$MXPGN,01EFFF,7806,FFFFFF001108CE62*61
$MXPGN,01EFFF,7806,000000003F3DEA88*6D
$GPGGA,164739.070,3407.20382,N,07752.20166,W,2,10,1.25,-40.30,M,-36.43,M,,*49
$GPGLL,3407.20382,N,07752.20166,W,164739.070,A,D*48
$GPVTG,13.79,T,,M,8.84,N,16.37,K,D*33
$MXPGN,01EFFF,7806,FFFFFFFFFFFF7FA6*6D
$MXPGN,01EFFF,7806,FFFFFFFFFF7FFFC4*6D
$GLZDA,164739.320,14,07,2023,,*44
$MXPGN,01EFFF,7806,FFFFFF001108CEE2*12
$MXPGN,01EFFF,7806,FFFFFF03C3120103*19
$MXPGN,01EFFF,7806,000000003F3DEA28*67
$GPGGA,164740.070,3407.20618,N,07752.20106,W,2,10,1.25,-40.56,M,-36.43,M,,*47
$GPRMC,164740.070,A,3407.20618,N,07752.20106,W,8.90,13.27,140723,,,D*44
$GPVTG,13.27,T,,M,8.90,N,16.48,K,D*35
$MXPGN,01EFFF,7806,FFFFFFFFFFFF7F46*18
$GLZDA,164740.320,14,07,2023,,*4A
$MXPGN,01EFFF,7806,FFFF02E82A4E9084*13
$MXPGN,01EFFF,7806,FFFFFF001108CEA2*16
$MXPGN,01EFFF,7806,000000003F3DE4C8*63
$MXPGN,01EFFF,7806,FFFFFFFFFFFF00E2*1C
$GPGGA,164741.125,3407.20862,N,07752.20032,W,2,10,1.25,-40.82,M,-36.43,M,,*4B
$GPRMC,164741.125,A,3407.20862,N,07752.20032,W,8.70,13.94,140723,,,D*47
$GPVTG,13.94,T,,M,8.70,N,16.11,K,D*3F
$MXPGN,01EFFF,7806,FFFFFFFFFFFF7F06*1C
$GLZDA,164741.315,14,07,2023,,*4D
$MXPGN,00EA01,6306,00EE00*66
$MXPGN,01EFFF,7806,FFFFFF001108CE42*63
$MXPGN,01EFFF,7806,FFFFFF03C4120163*18
$MXPGN,01EFFF,7806,000000003F3DEA88*6D
$GPGGA,164742.070,3407.21083,N,07752.19964,W,2,10,1.25,-41.02,M,-36.43,M,,*46
$GPRMC,164742.070,A,3407.21083,N,07752.19964,W,8.74,14.49,140723,,,D*40
$GPVTG,14.49,T,,M,8.74,N,16.18,K,D*35
$MXPGN,00EA00,6306,00EE00*67
$MXPGN,01EFFF,7806,FFFFFFFFFFFF7FA6*6D
$MXPGN,00EA02,6306,00EE00*65
$GLZDA,164742.320,14,07,2023,,*48
$MXPGN,00EA03,6306,00EE00*64
$MXPGN,01EFFF,7806,FFFFFF001108CEE2*12
$MXPGN,01EFFF,7806,FFFF02E92A4E9004*1A
$MXPGN,01EFFF,7806,000000003F3DE828*1E
$GPGGA,164743.070,3407.21319,N,07752.19880,W,2,10,1.25,-40.76,M,-36.43,M,,*4E
$GPRMC,164743.070,A,3407.21319,N,07752.19880,W,8.70,14.13,140723,,,D*41
$GPVTG,14.13,T,,M,8.70,N,16.11,K,D*37
$MXPGN,01EFFF,7806,FFFFFFFFFFFF7F46*18
$MXPGN,00EA05,6306,00EE00*62
$GLZDA,164743.320,14,07,2023,,*49
$MXPGN,00EA04,6306,00EE00*63
$MXPGN,01EFFF,7806,FFFFFF001108CE82*6F
$MXPGN,01EFFF,7806,FFFFFF03C51201A3*6E
$MXPGN,01EFFF,7806,000000003F3DE9C8*6E
$GPGGA,164744.074,3407.21560,N,07752.19803,W,2,10,1.25,-41.02,M,-36.43,M,,*4C
$GPRMC,164744.074,A,3407.21560,N,07752.19803,W,8.88,14.92,140723,,,D*4F
$GPVTG,14.92,T,,M,8.88,N,16.44,K,D*39
$MXPGN,01EFFF,7806,FFFFFFFFFFFF7FE6*69
$GLZDA,164744.324,14,07,2023,,*4A
$MXPGN,01EFFF,7806,FFFFFF001108CE22*65
$MXPGN,01EFFF,7806,000000003F3DEB48*62
$GPGGA,164745.074,3407.21799,N,07752.19722,W,2,10,1.25,-41.22,M,-36.43,M,,*47
$GPGLL,3407.21799,N,07752.19722,W,164745.074,A,D*44
$GPVTG,16.31,T,,M,8.98,N,16.63,K,D*36
$MXPGN,01EFFF,7806,FFFFFFFFFFFF7F66*1A
$MXPGN,01EFFF,7806,FFFFFFFFFF7FFF84*16
$GLZDA,164745.324,14,07,2023,,*4B
$MXPGN,01EFFF,7806,FFFF02EA2A4E90A4*13
$MXPGN,01EFFF,7806,FFFFFF001108CEC2*14
$MXPGN,01EFFF,7806,FFFFFF03C61201E3*69
$MXPGN,01EFFF,7806,000000003F3DEE08*61
$GPGGA,164746.074,3407.22037,N,07752.19640,W,2,10,1.25,-41.22,M,-36.43,M,,*41
$GPRMC,164746.074,A,3407.22037,N,07752.19640,W,8.84,15.85,140723,,,D*4B
$GPVTG,15.85,T,,M,8.84,N,16.37,K,D*36
$MXPGN,01EFFF,7806,FFFFFFFFFF7FFF44*1A
$GLZDA,164746.324,14,07,2023,,*48
$MXPGN,01EFFF,7806,FFFFFF001108CE62*61
$MXPGN,01EFFF,7806,000000003F3DE788*1B
$GPGGA,164747.078,3407.22277,N,07752.19548,W,2,10,1.25,-41.15,M,-36.43,M,,*45
$GPGLL,3407.22277,N,07752.19548,W,164747.078,A,D*42
$GPVTG,17.42,T,,M,8.94,N,16.55,K,D*3A
$MXPGN,01EFFF,7806,FFFFFFFFFFFF7FA6*6D
$MXPGN,01EFFF,7806,FFFFFFFFFF7FFFC4*6D
$GLZDA,164747.328,14,07,2023,,*45
$MXPGN,01EFFF,7806,FFFFFF001108CEE2*12
$MXPGN,01EFFF,7806,FFFF02EB2A4E9004*61
$MXPGN,01EFFF,7806,FFFFFF03C7120123*1F
$MXPGN,01EFFF,7806,000000003F3DEB48*62
$GPGLL,3407.22523,N,07752.19454,W,164748.078,A,D*47
$GPRMC,164748.078,A,3407.22523,N,07752.19454,W,9.15,16.55,140723,,,D*49
$MXPGN,01EFFF,7806,FFFFFFFFFFFF7F66*1A
$MXPGN,01EFFF,7806,FFFFFFFFFF7FFF84*16
$GLZDA,164748.328,14,07,2023,,*4A
$MXPGN,01EFFF,7806,FFFFFF001108CEA2*16
$MXPGN,01EFFF,7806,000000003F3DEDC8*13
$GPGGA,164749.078,3407.22763,N,07752.19358,W,2,10,1.25,-41.02,M,-36.43,M,,*4A
$GPRMC,164749.078,A,3407.22763,N,07752.19358,W,9.00,16.81,140723,,,D*48
$GPVTG,16.81,T,,M,9.00,N,16.66,K,D*38
$MXPGN,01EFFF,7806,FFFFFFFFFFFF7FE6*69
$GLZDA,164749.328,14,07,2023,,*4B
$MXPGN,01EFFF,7806,FFFFFF001108CE22*65
$MXPGN,01EFFF,7806,FFFFFF03C8120143*16
$MXPGN,01EFFF,7806,000000003F3DEF68*64
$GPGGA,164750.078,3407.22997,N,07752.19261,W,2,10,1.25,-40.76,M,-36.43,M,,*4E
$GPRMC,164750.078,A,3407.22997,N,07752.19261,W,8.96,17.49,140723,,,D*45
$GPVTG,17.49,T,,M,8.96,N,16.59,K,D*3F
$MXPGN,01EFFF,7806,FFFFFFFFFFFF7F86*14
$GLZDA,164750.328,14,07,2023,,*43
$MXPGN,01EFFF,7806,FFFF02EC2A4E90C4*13
$MXPGN,01EFFF,7806,FFFFFF001108CEE2*12
$MXPGN,01EFFF,7806,000000003F3DE708*13
$GPGGA,164751.078,3407.23234,N,07752.19167,W,2,10,1.25,-40.76,M,-36.43,M,,*49
$GPGLL,3407.23234,N,07752.19167,W,164751.078,A,D*4A
$GPVTG,17.28,T,,M,8.96,N,16.59,K,D*38
$MXPGN,01EFFF,7806,FFFFFFFFFFFF0022*6B
$MXPGN,01EFFF,7806,FFFFFFFFFFFF7F46*18
$GLZDA,164751.328,14,07,2023,,*42
$MXPGN,01EFFF,7806,FFFFFF001108CE82*6F
$MXPGN,01EFFF,7806,FFFFFF03C91201A3*62
$MXPGN,01EFFF,7806,000000003F3DE6C8*61
$GPGGA,164752.078,3407.23473,N,07752.19077,W,2,10,1.25,-40.89,M,-36.43,M,,*4F
$GPRMC,164752.078,A,3407.23473,N,07752.19077,W,9.03,17.64,140723,,,D*46
$GPVTG,17.64,T,,M,9.03,N,16.72,K,D*34
$MXPGN,01EFFF,7806,FFFFFFFFFFFF7FE6*69
$MXPGN,00EA01,6306,00EE00*66
$GLZDA,164752.328,14,07,2023,,*41
$MXPGN,01EFFF,7806,FFFFFF001108CE22*65
$MXPGN,01EFFF,7806,FFFF02ED2A4E9044*63
$MXPGN,01EFFF,7806,000000003F3DED68*66
$GPGGA,164753.078,3407.23706,N,07752.18983,W,2,10,1.25,-41.02,M,-36.43,M,,*4E
$GPRMC,164753.078,A,3407.23706,N,07752.18983,W,8.92,19.56,140723,,,D*43
$GPVTG,19.56,T,,M,8.92,N,16.51,K,D*33
$MXPGN,00EA02,6306,00EE00*65
$MXPGN,01EFFF,7806,FFFFFFFFFFFF7F86*14
$GLZDA,164753.328,14,07,2023,,*40
$MXPGN,00EA00,6306,00EE00*67
$MXPGN,00EA03,6306,00EE00*64
$MXPGN,01EFFF,7806,FFFFFF001108CEC2*14
$MXPGN,01EFFF,7806,FFFFFF03CA1201E3*1E
$MXPGN,01EFFF,7806,000000003F3DF108*16
$GPGGA,164754.078,3407.23937,N,07752.18877,W,2,10,1.25,-40.96,M,-36.43,M,,*43
$GPRMC,164754.078,A,3407.23937,N,07752.18877,W,8.86,19.42,140723,,,D*42
$GPVTG,19.42,T,,M,8.86,N,16.40,K,D*33
$MXPGN,01EFFF,7806,FFFFFFFFFFFF7F26*1E
$MXPGN,00EA05,6306,00EE00*62
$MXPGN,00EA04,6306,00EE00*63
$GLZDA,164754.328,14,07,2023,,*47
$MXPGN,01EFFF,7806,FFFFFF001108CE62*61
$MXPGN,01EFFF,7806,000000003F3DEB88*6E
$GPGGA,164755.074,3407.24168,N,07752.18769,W,2,10,1.25,-40.89,M,-36.43,M,,*45
$GPGLL,3407.24168,N,07752.18769,W,164755.074,A,D*46
$GPVTG,20.58,T,,M,8.70,N,16.11,K,D*3F
$MXPGN,01EFFF,7806,FFFFFFFFFFFF7FA6*6D
$MXPGN,01EFFF,7806,FFFFFFFFFF7FFFC4*6D
$GLZDA,164755.324,14,07,2023,,*4A
$MXPGN,01EFFF,7806,FFFF02EE2A4E90E4*13
$MXPGN,01EFFF,7806,FFFFFF001108CE02*67
$MXPGN,01EFFF,7806,FFFFFF03CB120123*6A
$MXPGN,01EFFF,7806,000000003F3DEE48*65
$GPGGA,164756.070,3407.24395,N,07752.18659,W,2,10,1.25,-41.02,M,-36.43,M,,*42
$GPRMC,164756.070,A,3407.24395,N,07752.18659,W,8.57,21.62,140723,,,D*4A
$GPVTG,21.62,T,,M,8.57,N,15.87,K,D*3E
$MXPGN,01EFFF,7806,FFFFFFFFFF7FFF84*16
$GLZDA,164756.320,14,07,2023,,*4D
$MXPGN,01EFFF,7806,FFFFFF001108CEA2*16
$MXPGN,01EFFF,7806,000000003F3DF0C8*64
$GPGGA,164757.070,3407.24618,N,07752.18545,W,2,10,1.25,-40.89,M,-36.43,M,,*4F
$GPGLL,3407.24618,N,07752.18545,W,164757.070,A,D*4C
$GPVTG,22.57,T,,M,8.39,N,15.53,K,D*3A
$MXPGN,01EFFF,7806,FFFFFFFFFFFF7FE6*69
$MXPGN,01EFFF,7806,FFFFFFFFFF7FFF04*1E
$GLZDA,164757.320,14,07,2023,,*4C
$MXPGN,01EFFF,7806,FFFFFF001108CE22*65
$MXPGN,01EFFF,7806,FFFF02EF2A4E9044*61
$MXPGN,01EFFF,7806,FFFFFF03CC120163*6F
$MXPGN,01EFFF,7806,000000003F3DF088*1F
$GPGLL,3407.24840,N,07752.18429,W,164758.070,A,D*4B
$GPRMC,164758.070,A,3407.24840,N,07752.18429,W,8.24,22.30,140723,,,D*42
$MXPGN,01EFFF,7806,FFFFFFFFFFFF7FA6*6D
$MXPGN,01EFFF,7806,FFFFFFFFFF7FFFC4*6D
$GLZDA,164758.320,14,07,2023,,*43
$MXPGN,01EFFF,7806,FFFFFF001108CEE2*12
$MXPGN,01EFFF,7806,000000003F3DF208*15
$GPGGA,164759.070,3407.25050,N,07752.18320,W,2,10,1.25,-39.84,M,-36.43,M,,*4C
$GPRMC,164759.070,A,3407.25050,N,07752.18320,W,8.02,21.38,140723,,,D*4A
$GPVTG,21.38,T,,M,8.02,N,14.85,K,D*32
$MXPGN,01EFFF,7806,FFFFFFFFFFFF7F26*1E
$GLZDA,164759.320,14,07,2023,,*42
$MXPGN,01EFFF,7806,FFFFFF001108CE62*61
$MXPGN,01EFFF,7806,FFFFFF03CD120183*66
$MXPGN,01EFFF,7806,000000003F3DEAA8*14
$GPGGA,164800.070,3407.25251,N,07752.18220,W,2,10,1.25,-39.71,M,-36.43,M,,*47
$GPRMC,164800.070,A,3407.25251,N,07752.18220,W,7.96,20.80,140723,,,D*4B
$GPVTG,20.80,T,,M,7.96,N,14.74,K,D*3C
$MXPGN,01EFFF,7806,FFFFFFFFFFFF7FC6*6F
$GLZDA,164800.320,14,07,2023,,*41
$MXPGN,01EFFF,7806,FFFF02F02A4E9004*10
$MXPGN,01EFFF,7806,FFFFFF001108CE22*65
$MXPGN,01EFFF,7806,000000003F3DF048*13
$GPGGA,164801.070,3407.25454,N,07752.18129,W,2,10,1.25,-39.78,M,-36.43,M,,*46
$GPGLL,3407.25454,N,07752.18129,W,164801.070,A,D*45
$GPVTG,20.23,T,,M,8.02,N,14.85,K,D*39
$MXPGN,01EFFF,7806,FFFFFFFFFFFF0062*6F
$MXPGN,01EFFF,7806,FFFFFFFFFFFF7F86*14
$GLZDA,164801.320,14,07,2023,,*40
$MXPGN,01EFFF,7806,FFFFFF001108CEC2*14
$MXPGN,01EFFF,7806,FFFFFF03CE1201E3*1A
$MXPGN,01EFFF,7806,000000003F3DF608*11
$GPGGA,164802.070,3407.25661,N,07752.18033,W,2,10,1.25,-39.64,M,-36.43,M,,*46
$GPRMC,164802.070,A,3407.25661,N,07752.18033,W,8.08,20.25,140723,,,D*49
$GPVTG,20.25,T,,M,8.08,N,14.96,K,D*37
$MXPGN,01EFFF,7806,FFFFFFFFFFFF7F26*1E
$GLZDA,164802.320,14,07,2023,,*43
$MXPGN,01EFFF,7806,FFFFFF001108CE62*61
$MXPGN,01EFFF,7806,FFFF02F12A4E9084*19
$MXPGN,01EFFF,7806,000000003F3DEEA8*10
$GPGGA,164803.078,3407.25876,N,07752.17925,W,2,10,1.25,-39.38,M,-36.43,M,,*4F
$GPRMC,164803.078,A,3407.25876,N,07752.17925,W,8.10,20.83,140723,,,D*4C
$GPVTG,20.83,T,,M,8.10,N,15.00,K,D*3C
$MXPGN,01EFFF,7806,FFFFFFFFFFFF7FC6*6F
$GLZDA,164803.328,14,07,2023,,*4A
$MXPGN,00EA01,6306,00EE00*66
$MXPGN,01EFFF,7806,FFFFFF001108CE02*67
$MXPGN,01EFFF,7806,FFFFFF03CF120123*6E
$MXPGN,01EFFF,7806,000000003F3DF248*11
$MXPGN,00EA03,6306,00EE00*64
$GPGGA,164804.078,3407.26089,N,07752.17814,W,2,10,1.25,-39.12,M,-36.43,M,,*48
$GPRMC,164804.078,A,3407.26089,N,07752.17814,W,8.04,20.86,140723,,,D*43
$GPVTG,20.86,T,,M,8.04,N,14.89,K,D*3C
$MXPGN,01EFFF,7806,FFFFFFFFFFFF7F66*1A
$MXPGN,00EA00,6306,00EE00*67
$GLZDA,164804.328,14,07,2023,,*4D
$MXPGN,00EA02,6306,00EE00*65
$MXPGN,00EA04,6306,00EE00*63
$MXPGN,01EFFF,7806,FFFFFF001108CEA2*16
$MXPGN,00EA05,6306,00EE00*62
$MXPGN,01EFFF,7806,000000003F3DF1C8*65
$GPGGA,164805.078,3407.26296,N,07752.17707,W,2,10,1.25,-38.92,M,-36.43,M,,*41
$GPRMC,164805.078,A,3407.26296,N,07752.17707,W,7.91,21.04,140723,,,D*4B
$GPVTG,21.04,T,,M,7.91,N,14.64,K,D*37
$MXPGN,01EFFF,7806,FFFFFFFFFFFF7FE6*69
$MXPGN,01EFFF,7806,FFFFFFFFFF7FFF04*1E
$MXPGN,01EFFF,7806,FFFF02F22A4E9024*10
$MXPGN,01EFFF,7806,FFFFFF001108CE42*63
